$PGRMM,WGS 84*06
$GPRMC,,V,,,,,,,,*1D
$GPGGA,,,,,,,0,,,,,,*4A
$GPRMC,004113,A,3523.5447,N,13926.6124,E,0.0,0.0,131204,6.6,W*6D
$GPGGA,004113,3523.5447,N,13926.6124,E,1,04,,27.5,M,,M,,*4A
$GPRMC,004114,A,3523.5460,N,13926.6111,E,5.9,320.8,131204,6.6,W*6C
$GPGGA,004114,3523.5460,N,13926.6111,E,1,04,,27.1,M,,M,,*4A
$GPRMC,004115,A,3523.5396,N,13926.6188,E,32.4,135.6,131204,6.6,W*52
$GPGGA,004115,3523.5396,N,13926.6188,E,1,04,,27.1,M,,M,,*45
$GPRMC,004116,A,3523.5396,N,13926.6188,E,0.0,135.6,131204,6.6,W*64
$GPGGA,004116,3523.5396,N,13926.6188,E,1,04,,27.1,M,,M,,*46
$GPRMC,004117,A,3523.5396,N,13926.6188,E,0.0,135.6,131204,6.6,W*65
$GPGGA,004117,3523.5396,N,13926.6188,E,1,04,,27.1,M,,M,,*47
$GPRMC,004118,A,3523.5396,N,13926.6188,E,0.0,135.6,131204,6.6,W*6A
$GPGGA,004118,3523.5396,N,13926.6188,E,1,04,,26.1,M,,M,,*49
$GPRMC,004119,A,3523.5422,N,13926.6163,E,11.9,320.8,131204,6.6,W*57
$GPGGA,004119,3523.5422,N,13926.6163,E,1,04,,26.1,M,,M,,*45
$GPRMC,004120,A,3523.5422,N,13926.6137,E,7.5,270.0,131204,6.6,W*6B
$GPGGA,004120,3523.5422,N,13926.6137,E,1,04,,26.1,M,,M,,*4E
$GPRMC,004121,A,3523.5409,N,13926.6098,E,12.2,247.7,131204,6.6,W*57
$GPGGA,004121,3523.5409,N,13926.6098,E,1,04,,26.1,M,,M,,*42
$GPRMC,004122,A,3523.5383,N,13926.6047,E,17.7,238.4,131204,6.6,W*58
$GPGGA,004122,3523.5383,N,13926.6047,E,1,04,,25.6,M,,M,,*42
$GPRMC,004123,A,3523.5370,N,13926.6008,E,12.2,247.7,131204,6.6,W*55
$GPGGA,004123,3523.5370,N,13926.6008,E,1,04,,25.6,M,,M,,*44
$GPRMC,004124,A,3523.5357,N,13926.5969,E,12.2,247.7,131204,6.6,W*5A
$GPGGA,004124,3523.5357,N,13926.5969,E,1,04,,25.6,M,,M,,*4B
$GPRMC,004125,A,3523.5357,N,13926.5918,E,15.1,270.0,131204,6.6,W*5A
$GPGGA,004125,3523.5357,N,13926.5918,E,1,04,,24.7,M,,M,,*4C
$GPRMC,004126,A,3523.5344,N,13926.5879,E,12.2,247.7,131204,6.6,W*5A
$GPGGA,004126,3523.5344,N,13926.5879,E,1,04,,25.1,M,,M,,*4C
$GPRMC,004127,A,3523.5332,N,13926.5841,E,12.2,247.7,131204,6.6,W*51
$GPGGA,004127,3523.5332,N,13926.5841,E,1,04,,25.1,M,,M,,*47
$GPRMC,004128,A,3523.5254,N,13926.5725,E,43.9,230.7,131204,6.6,W*5D
$GPGGA,004128,3523.5254,N,13926.5725,E,1,04,,25.1,M,,M,,*44
$GPRMC,004129,A,3523.5216,N,13926.5596,E,40.3,249.7,131204,6.6,W*57
$GPGGA,004129,3523.5216,N,13926.5596,E,1,04,,24.7,M,,M,,*4E
$GPRMC,004130,A,3523.5190,N,13926.5480,E,35.3,254.7,131204,6.6,W*5A
$GPGGA,004130,3523.5190,N,13926.5480,E,1,04,,25.1,M,,M,,*4A
$GPRMC,004131,A,3523.5177,N,13926.5351,E,38.1,263.0,131204,6.6,W*55
$GPGGA,004131,3523.5177,N,13926.5351,E,1,04,,24.7,M,,M,,*4E
$GPRMC,004132,A,3523.5164,N,13926.5223,E,38.1,263.0,131204,6.6,W*50
$GPGGA,004132,3523.5164,N,13926.5223,E,1,04,,25.1,M,,M,,*4C
$GPRMC,004133,A,3523.5151,N,13926.5120,E,30.6,261.2,131204,6.6,W*58
$GPGGA,004133,3523.5151,N,13926.5120,E,1,04,,24.2,M,,M,,*49
$GPRMC,004134,A,3523.5138,N,13926.5017,E,30.6,261.2,131204,6.6,W*55
$GPGGA,004134,3523.5138,N,13926.5017,E,1,04,,23.7,M,,M,,*46
$GPRMC,004135,A,3523.5113,N,13926.4914,E,31.6,252.9,131204,6.6,W*5C
$GPGGA,004135,3523.5113,N,13926.4914,E,1,04,,23.7,M,,M,,*45
$GPRMC,004136,A,3523.5113,N,13926.4811,E,30.2,270.0,131204,6.6,W*57
$GPGGA,004136,3523.5113,N,13926.4811,E,1,04,,23.2,M,,M,,*47
$GPRMC,004137,A,3523.5087,N,13926.4733,E,24.5,247.7,131204,6.6,W*54
$GPGGA,004137,3523.5087,N,13926.4733,E,1,04,,23.2,M,,M,,*45
$GPRMC,004138,A,3523.5074,N,13926.4656,E,23.1,258.4,131204,6.6,W*5B
$GPGGA,004138,3523.5074,N,13926.4656,E,1,04,,23.2,M,,M,,*44
$GPRMC,004139,A,3523.5061,N,13926.4579,E,23.1,258.4,131204,6.6,W*50
$GPGGA,004139,3523.5061,N,13926.4579,E,1,04,,22.2,M,,M,,*4E
$GPRMC,004140,A,3523.5048,N,13926.4489,E,26.8,260.0,131204,6.6,W*58
$GPGGA,004140,3523.5048,N,13926.4489,E,1,04,,21.8,M,,M,,*4C
$GPRMC,004141,A,3523.5048,N,13926.4412,E,22.7,270.0,131204,6.6,W*51
$GPGGA,004141,3523.5048,N,13926.4412,E,1,04,,21.8,M,,M,,*4F
$GPRMC,004142,A,3523.5048,N,13926.4360,E,15.1,270.0,131204,6.6,W*52
$GPGGA,004142,3523.5048,N,13926.4360,E,1,04,,21.3,M,,M,,*45
$GPRMC,004143,A,3523.5035,N,13926.4296,E,19.4,256.2,131204,6.6,W*5E
$GPGGA,004143,3523.5035,N,13926.4296,E,1,04,,20.8,M,,M,,*4C
$GPRMC,004144,A,3523.5035,N,13926.4218,E,22.7,270.0,131204,6.6,W*52
$GPGGA,004144,3523.5035,N,13926.4218,E,1,04,,20.8,M,,M,,*4D
$GPRMC,004145,A,3523.5023,N,13926.4167,E,15.8,252.9,131204,6.6,W*5D
$GPGGA,004145,3523.5023,N,13926.4167,E,1,04,,19.8,M,,M,,*4A
$GPRMC,004146,A,3523.5010,N,13926.4090,E,23.1,258.4,131204,6.6,W*5C
$GPGGA,004146,3523.5010,N,13926.4090,E,1,04,,19.4,M,,M,,*4C
$GPRMC,004147,A,3523.4984,N,13926.4012,E,24.5,247.7,131204,6.6,W*5C
$GPGGA,004147,3523.4984,N,13926.4012,E,1,04,,18.9,M,,M,,*4E
$GPRMC,004148,A,3523.4971,N,13926.3922,E,26.8,260.0,131204,6.6,W*59
$GPGGA,004148,3523.4971,N,13926.3922,E,1,04,,18.9,M,,M,,*46
$GPRMC,004149,A,3523.4958,N,13926.3832,E,26.8,260.0,131204,6.6,W*53
$GPGGA,004149,3523.4958,N,13926.3832,E,1,04,,18.4,M,,M,,*41
$GPRMC,004150,A,3523.4932,N,13926.3742,E,28.0,250.6,131204,6.6,W*5C
$GPGGA,004150,3523.4932,N,13926.3742,E,1,04,,18.4,M,,M,,*4D
$GPRMC,004151,A,3523.4907,N,13926.3652,E,28.0,250.6,131204,6.6,W*5B
$GPGGA,004151,3523.4907,N,13926.3652,E,1,04,,17.4,M,,M,,*45
$GPRMC,004152,A,3523.4881,N,13926.3562,E,28.0,250.6,131204,6.6,W*57
$GPGGA,004152,3523.4881,N,13926.3562,E,1,04,,16.5,M,,M,,*49
$GPRMC,004153,A,3523.4842,N,13926.3472,E,29.9,242.2,131204,6.6,W*56
$GPGGA,004153,3523.4842,N,13926.3472,E,1,04,,16.5,M,,M,,*47
$GPRMC,004154,A,3523.4804,N,13926.3382,E,29.9,242.2,131204,6.6,W*5B
$GPGGA,004154,3523.4804,N,13926.3382,E,1,04,,16.0,M,,M,,*4F
$GPRMC,004155,A,3523.4765,N,13926.3279,E,33.3,245.2,131204,6.6,W*51
$GPGGA,004155,3523.4765,N,13926.3279,E,1,04,,15.5,M,,M,,*45
$GPRMC,004156,A,3523.4726,N,13926.3188,E,29.9,242.2,131204,6.6,W*5E
$GPGGA,004156,3523.4726,N,13926.3188,E,1,04,,15.5,M,,M,,*4C
$GPRMC,004157,A,3523.4675,N,13926.3085,E,35.4,238.4,131204,6.6,W*5F
$GPGGA,004157,3523.4675,N,13926.3085,E,1,04,,15.0,M,,M,,*43
$GPRMC,004158,A,3523.4636,N,13926.2982,E,33.3,245.2,131204,6.6,W*55
$GPGGA,004158,3523.4636,N,13926.2982,E,1,04,,14.1,M,,M,,*44
$GPRMC,004159,A,3523.4585,N,13926.2879,E,35.4,238.4,131204,6.6,W*57
$GPGGA,004159,3523.4585,N,13926.2879,E,1,04,,13.1,M,,M,,*4C
$GPRMC,004200,A,3523.4546,N,13926.2789,E,29.9,242.2,131204,6.6,W*5C
$GPGGA,004200,3523.4546,N,13926.2789,E,1,04,,13.1,M,,M,,*4C
$GPRMC,004201,A,3523.4495,N,13926.2686,E,35.4,238.4,131204,6.6,W*57
$GPGGA,004201,3523.4495,N,13926.2686,E,1,04,,13.1,M,,M,,*4C
$GPRMC,004202,A,3523.4456,N,13926.2609,E,26.6,238.4,131204,6.6,W*5C
$GPGGA,004202,3523.4456,N,13926.2609,E,1,04,,12.6,M,,M,,*41
$GPRMC,004203,A,3523.4417,N,13926.2519,E,29.9,242.2,131204,6.6,W*51
$GPGGA,004203,3523.4417,N,13926.2519,E,1,04,,12.2,M,,M,,*43
$GPRMC,004204,A,3523.4392,N,13926.2442,E,24.5,247.7,131204,6.6,W*52
$GPGGA,004204,3523.4392,N,13926.2442,E,1,04,,12.6,M,,M,,*45
$GPRMC,004205,A,3523.4353,N,13926.2365,E,26.6,238.4,131204,6.6,W*56
$GPGGA,004205,3523.4353,N,13926.2365,E,1,04,,11.7,M,,M,,*49
$GPRMC,004206,A,3523.4314,N,13926.2300,E,23.4,233.6,131204,6.6,W*5B
$GPGGA,004206,3523.4314,N,13926.2300,E,1,04,,11.2,M,,M,,*4F
$GPRMC,004207,A,3523.4289,N,13926.2223,E,24.5,247.7,131204,6.6,W*5B
$GPGGA,004207,3523.4289,N,13926.2223,E,1,04,,11.7,M,,M,,*4E
$GPRMC,004208,A,3523.4250,N,13926.2159,E,23.4,233.6,131204,6.6,W*5A
$GPGGA,004208,3523.4250,N,13926.2159,E,1,04,,10.7,M,,M,,*4A
$GPRMC,004209,A,3523.4224,N,13926.2081,E,24.5,247.7,131204,6.6,W*58
$GPGGA,004209,3523.4224,N,13926.2081,E,1,04,,10.2,M,,M,,*49
$GPRMC,004210,A,3523.4199,N,13926.2004,E,24.5,247.7,131204,6.6,W*58
$GPGGA,004210,3523.4199,N,13926.2004,E,1,04,,10.7,M,,M,,*4C
$GPRMC,004211,A,3523.4160,N,13926.1927,E,26.6,238.4,131204,6.6,W*5E
$GPGGA,004211,3523.4160,N,13926.1927,E,1,04,,9.8,M,,M,,*77
$GPRMC,004212,A,3523.4121,N,13926.1824,E,33.3,245.2,131204,6.6,W*57
$GPGGA,004212,3523.4121,N,13926.1824,E,1,04,,9.3,M,,M,,*78
$GPRMC,004213,A,3523.4070,N,13926.1734,E,32.3,234.9,131204,6.6,W*51
$GPGGA,004213,3523.4070,N,13926.1734,E,1,04,,8.3,M,,M,,*73
$GPRMC,004214,A,3523.4031,N,13926.1644,E,29.9,242.2,131204,6.6,W*5F
$GPGGA,004214,3523.4031,N,13926.1644,E,1,04,,8.3,M,,M,,*77
$GPRMC,004215,A,3523.3993,N,13926.1541,E,33.3,245.2,131204,6.6,W*58
$GPGGA,004215,3523.3993,N,13926.1541,E,1,04,,8.8,M,,M,,*7D
$GPRMC,004216,A,3523.3941,N,13926.1438,E,35.4,238.4,131204,6.6,W*56
$GPGGA,004216,3523.3941,N,13926.1438,E,1,04,,7.8,M,,M,,*71
$GPRMC,004217,A,3523.3902,N,13926.1335,E,33.3,245.2,131204,6.6,W*57
$GPGGA,004217,3523.3902,N,13926.1335,E,1,04,,7.8,M,,M,,*7D
$GPRMC,004218,A,3523.3864,N,13926.1232,E,33.3,245.2,131204,6.6,W*5F
$GPGGA,004218,3523.3864,N,13926.1232,E,1,04,,7.3,M,,M,,*7E
$GPRMC,004219,A,3523.3825,N,13926.1116,E,36.7,247.7,131204,6.6,W*58
$GPGGA,004219,3523.3825,N,13926.1116,E,1,04,,7.3,M,,M,,*7F
$GPRMC,004220,A,3523.3799,N,13926.1013,E,31.6,252.9,131204,6.6,W*52
$GPGGA,004220,3523.3799,N,13926.1013,E,1,04,,7.3,M,,M,,*79
$GPRMC,004221,A,3523.3787,N,13926.0910,E,30.6,261.2,131204,6.6,W*5D
$GPGGA,004221,3523.3787,N,13926.0910,E,1,04,,6.9,M,,M,,*77
$GPRMC,004222,A,3523.3774,N,13926.0820,E,26.8,260.0,131204,6.6,W*5A
$GPGGA,004222,3523.3774,N,13926.0820,E,1,04,,6.4,M,,M,,*77
$GPRMC,004223,A,3523.3761,N,13926.0742,E,23.1,258.4,131204,6.6,W*57
$GPGGA,004223,3523.3761,N,13926.0742,E,1,04,,6.4,M,,M,,*79
$GPRMC,004224,A,3523.3761,N,13926.0665,E,22.7,270.0,131204,6.6,W*5D
$GPGGA,004224,3523.3761,N,13926.0665,E,1,04,,5.4,M,,M,,*79
$GPRMC,004225,A,3523.3761,N,13926.0626,E,11.3,270.0,131204,6.6,W*5F
$GPGGA,004225,3523.3761,N,13926.0626,E,1,04,,5.4,M,,M,,*7F
$GPRMC,004226,A,3523.3761,N,13926.0588,E,11.3,270.0,131204,6.6,W*5B
$GPGGA,004226,3523.3761,N,13926.0588,E,1,04,,5.4,M,,M,,*7B
$GPRMC,004228,A,3523.3774,N,13926.0523,E,9.7,283.7,131204,6.6,W*66
$GPGGA,004228,3523.3774,N,13926.0523,E,1,04,,4.9,M,,M,,*7C
$GPRMC,004229,A,3523.3774,N,13926.0498,E,7.5,270.0,131204,6.6,W*61
$GPGGA,004229,3523.3774,N,13926.0498,E,1,04,,4.5,M,,M,,*70
$GPRMC,004230,A,3523.3774,N,13926.0472,E,7.5,270.0,131204,6.6,W*6D
$GPGGA,004230,3523.3774,N,13926.0472,E,1,04,,3.5,M,,M,,*7B
$GPRMC,004231,A,3523.3774,N,13926.0446,E,7.5,270.0,131204,6.6,W*6B
$GPGGA,004231,3523.3774,N,13926.0446,E,1,04,,3.5,M,,M,,*7D
$GPRMC,004232,A,3523.3774,N,13926.0420,E,7.5,270.0,131204,6.6,W*68
$GPGGA,004232,3523.3774,N,13926.0420,E,1,04,,2.5,M,,M,,*7F
$GPRMC,004233,A,3523.3774,N,13926.0382,E,11.3,270.0,131204,6.6,W*57
$GPGGA,004233,3523.3774,N,13926.0382,E,1,04,,2.1,M,,M,,*75
$GPRMC,004234,A,3523.3774,N,13926.0343,E,11.3,270.0,131204,6.6,W*5D
$GPGGA,004234,3523.3774,N,13926.0343,E,1,04,,1.1,M,,M,,*7C
$GPRMC,004235,A,3523.3774,N,13926.0305,E,11.3,270.0,131204,6.6,W*5E
$GPGGA,004235,3523.3774,N,13926.0305,E,1,04,,1.1,M,,M,,*7F
$GPRMC,004236,A,3523.3774,N,13926.0266,E,11.3,270.0,131204,6.6,W*59
$GPGGA,004236,3523.3774,N,13926.0266,E,1,04,,0.1,M,,M,,*79
$GPRMC,004237,A,3523.3774,N,13926.0227,E,11.3,270.0,131204,6.6,W*5D
$GPGGA,004237,3523.3774,N,13926.0227,E,1,04,,0.1,M,,M,,*7D
$GPRMC,004238,A,3523.3787,N,13926.0163,E,19.4,283.7,131204,6.6,W*59
$GPGGA,004238,3523.3787,N,13926.0163,E,1,04,,-0.8,M,,M,,*59
$GPRMC,004239,A,3523.3787,N,13926.0099,E,18.9,270.0,131204,6.6,W*5B
$GPGGA,004239,3523.3787,N,13926.0099,E,1,04,,-1.3,M,,M,,*56
$GPRMC,004240,A,3523.3799,N,13926.0034,E,19.4,283.7,131204,6.6,W*5A
$GPGGA,004240,3523.3799,N,13926.0034,E,1,04,,-1.3,M,,M,,*50
$GPRMC,004241,A,3523.3799,N,13925.9970,E,18.9,270.0,131204,6.6,W*5F
$GPGGA,004241,3523.3799,N,13925.9970,E,1,04,,-1.8,M,,M,,*59
$GPRMC,004242,A,3523.3799,N,13925.9905,E,18.9,270.0,131204,6.6,W*5E
$GPGGA,004242,3523.3799,N,13925.9905,E,1,04,,-2.3,M,,M,,*50
$GPRMC,004243,A,3523.3799,N,13925.9841,E,18.9,270.0,131204,6.6,W*5E
$GPGGA,004243,3523.3799,N,13925.9841,E,1,04,,-2.7,M,,M,,*54
$GPRMC,004244,A,3523.3812,N,13925.9777,E,19.4,283.7,131204,6.6,W*58
$GPGGA,004244,3523.3812,N,13925.9777,E,1,04,,-3.2,M,,M,,*51
$GPRMC,004245,A,3523.3812,N,13925.9712,E,18.9,270.0,131204,6.6,W*5D
$GPGGA,004245,3523.3812,N,13925.9712,E,1,04,,-3.7,M,,M,,*56
$GPRMC,004246,A,3523.3812,N,13925.9661,E,15.1,270.0,131204,6.6,W*5E
$GPGGA,004246,3523.3812,N,13925.9661,E,1,04,,-4.2,M,,M,,*52
$GPRMC,004247,A,3523.3812,N,13925.9635,E,7.5,270.0,131204,6.6,W*69
$GPGGA,004247,3523.3812,N,13925.9635,E,1,04,,-4.2,M,,M,,*52
$GPRMC,004248,A,3523.3812,N,13925.9596,E,11.3,270.0,131204,6.6,W*5D
$GPGGA,004248,3523.3812,N,13925.9596,E,1,04,,-5.1,M,,M,,*55
$GPRMC,004249,A,3523.3812,N,13925.9584,E,3.7,270.0,131204,6.6,W*68
$GPGGA,004249,3523.3812,N,13925.9584,E,1,04,,-4.7,M,,M,,*50
$GPRMC,004250,A,3523.3812,N,13925.9558,E,7.5,270.0,131204,6.6,W*67
$GPGGA,004250,3523.3812,N,13925.9558,E,1,04,,-6.1,M,,M,,*5D
$GPRMC,004251,A,3523.3812,N,13925.9532,E,7.5,270.0,131204,6.6,W*6A
$GPGGA,004251,3523.3812,N,13925.9532,E,1,04,,-6.6,M,,M,,*57
$GPRMC,004252,A,3523.3812,N,13925.9506,E,7.5,270.0,131204,6.6,W*6E
$GPGGA,004252,3523.3812,N,13925.9506,E,1,04,,-7.1,M,,M,,*55
$GPRMC,004253,A,3523.3825,N,13925.9468,E,12.2,292.2,131204,6.6,W*5F
$GPGGA,004253,3523.3825,N,13925.9468,E,1,04,,-7.6,M,,M,,*5E
$GPRMC,004254,A,3523.3825,N,13925.9390,E,22.7,270.0,131204,6.6,W*50
$GPGGA,004254,3523.3825,N,13925.9390,E,1,04,,-7.6,M,,M,,*59
$GPRMC,004255,A,3523.3825,N,13925.9326,E,18.9,270.0,131204,6.6,W*5B
$GPGGA,004255,3523.3825,N,13925.9326,E,1,04,,-8.0,M,,M,,*5C
$GPRMC,004256,A,3523.3838,N,13925.9249,E,23.1,281.5,131204,6.6,W*57
$GPGGA,004256,3523.3838,N,13925.9249,E,1,04,,-8.0,M,,M,,*5B
$GPRMC,004257,A,3523.3851,N,13925.9172,E,23.1,281.5,131204,6.6,W*52
$GPGGA,004257,3523.3851,N,13925.9172,E,1,04,,-8.5,M,,M,,*5B
$GPRMC,004258,A,3523.3864,N,13925.9094,E,23.1,281.5,131204,6.6,W*52
$GPGGA,004258,3523.3864,N,13925.9094,E,1,04,,-8.5,M,,M,,*5B
$GPRMC,004259,A,3523.3877,N,13925.9030,E,19.4,283.7,131204,6.6,W*53
$GPGGA,004259,3523.3877,N,13925.9030,E,1,04,,-8.5,M,,M,,*56
$GPRMC,004300,A,3523.3890,N,13925.8966,E,19.4,283.7,131204,6.6,W*5C
$GPGGA,004300,3523.3890,N,13925.8966,E,1,04,,-9.0,M,,M,,*5D
$GPRMC,004301,A,3523.3890,N,13925.8914,E,15.1,270.0,131204,6.6,W*5A
$GPGGA,004301,3523.3890,N,13925.8914,E,1,04,,-9.0,M,,M,,*59
$GPRMC,004302,A,3523.3902,N,13925.8863,E,15.8,287.0,131204,6.6,W*53
$GPGGA,004302,3523.3902,N,13925.8863,E,1,04,,-9.0,M,,M,,*51
$GPRMC,004303,A,3523.3902,N,13925.8811,E,15.1,270.0,131204,6.6,W*56
$GPGGA,004303,3523.3902,N,13925.8811,E,1,04,,-9.0,M,,M,,*55
$GPRMC,004304,A,3523.3902,N,13925.8760,E,15.1,270.0,131204,6.6,W*58
$GPGGA,004304,3523.3902,N,13925.8760,E,1,04,,-9.0,M,,M,,*5B
$GPRMC,004305,A,3523.3902,N,13925.8708,E,15.1,270.0,131204,6.6,W*57
$GPGGA,004305,3523.3902,N,13925.8708,E,1,04,,-9.5,M,,M,,*51
$GPRMC,004306,A,3523.3864,N,13925.8695,E,14.3,195.2,131204,6.6,W*59
$GPGGA,004306,3523.3864,N,13925.8695,E,1,04,,-9.5,M,,M,,*56
$GPRMC,004307,A,3523.3825,N,13925.8669,E,15.8,208.5,131204,6.6,W*54
$GPGGA,004307,3523.3825,N,13925.8669,E,1,04,,-9.5,M,,M,,*51
$GPRMC,004308,A,3523.3787,N,13925.8631,E,17.9,219.1,131204,6.6,W*56
$GPGGA,004308,3523.3787,N,13925.8631,E,1,04,,-9.5,M,,M,,*54
$GPRMC,004309,A,3523.3735,N,13925.8592,E,21.7,211.4,131204,6.6,W*52
$GPGGA,004309,3523.3735,N,13925.8592,E,1,04,,-9.5,M,,M,,*56
$GPRMC,004310,A,3523.3696,N,13925.8554,E,17.9,219.1,131204,6.6,W*5E
$GPGGA,004310,3523.3696,N,13925.8554,E,1,04,,-9.5,M,,M,,*5C
$GPRMC,004311,A,3523.3658,N,13925.8515,E,17.9,219.1,131204,6.6,W*58
$GPGGA,004311,3523.3658,N,13925.8515,E,1,04,,-9.5,M,,M,,*5A
$GPRMC,004312,A,3523.3619,N,13925.8476,E,17.9,219.1,131204,6.6,W*5A
$GPGGA,004312,3523.3619,N,13925.8476,E,1,04,,-9.5,M,,M,,*58
$GPRMC,004313,A,3523.3581,N,13925.8451,E,15.8,208.5,131204,6.6,W*5B
$GPGGA,004313,3523.3581,N,13925.8451,E,1,04,,-10.0,M,,M,,*63
$GPRMC,004314,A,3523.3568,N,13925.8412,E,12.2,247.7,131204,6.6,W*58
$GPGGA,004314,3523.3568,N,13925.8412,E,1,04,,-10.4,M,,M,,*60
$GPRMC,004315,A,3523.3593,N,13925.8373,E,14.6,309.2,131204,6.6,W*51
$GPGGA,004315,3523.3593,N,13925.8373,E,1,04,,-10.0,M,,M,,*61
$GPRMC,004316,A,3523.3606,N,13925.8322,E,15.8,287.0,131204,6.6,W*53
$GPGGA,004316,3523.3606,N,13925.8322,E,1,04,,-10.0,M,,M,,*69
$GPRMC,004317,A,3523.3632,N,13925.8283,E,14.6,309.2,131204,6.6,W*55
$GPGGA,004317,3523.3632,N,13925.8283,E,1,04,,-10.0,M,,M,,*65
$GPRMC,004318,A,3523.3645,N,13925.8245,E,12.2,292.2,131204,6.6,W*51
$GPGGA,004318,3523.3645,N,13925.8245,E,1,04,,-10.0,M,,M,,*60
$GPRMC,004319,A,3523.3658,N,13925.8193,E,15.8,287.0,131204,6.6,W*5F
$GPGGA,004319,3523.3658,N,13925.8193,E,1,04,,-10.0,M,,M,,*65
$GPRMC,004320,A,3523.3658,N,13925.8155,E,11.3,270.0,131204,6.6,W*58
$GPGGA,004320,3523.3658,N,13925.8155,E,1,04,,-10.0,M,,M,,*65
$GPRMC,004321,A,3523.3671,N,13925.8103,E,15.8,287.0,131204,6.6,W*56
$GPGGA,004321,3523.3671,N,13925.8103,E,1,04,,-10.0,M,,M,,*6C
$GPRMC,004322,A,3523.3684,N,13925.8052,E,15.8,287.0,131204,6.6,W*5A
$GPGGA,004322,3523.3684,N,13925.8052,E,1,04,,-10.0,M,,M,,*60
$GPRMC,004323,A,3523.3696,N,13925.8013,E,12.2,292.2,131204,6.6,W*56
$GPGGA,004323,3523.3696,N,13925.8013,E,1,04,,-10.0,M,,M,,*67
$GPRMC,004324,A,3523.3696,N,13925.7974,E,11.3,270.0,131204,6.6,W*5A
$GPGGA,004324,3523.3696,N,13925.7974,E,1,04,,-10.0,M,,M,,*67
$GPRMC,004325,A,3523.3684,N,13925.7910,E,19.4,256.2,131204,6.6,W*53
$GPGGA,004325,3523.3684,N,13925.7910,E,1,04,,-10.0,M,,M,,*67
$GPRMC,004326,A,3523.3671,N,13925.7833,E,23.1,258.4,131204,6.6,W*5E
$GPGGA,004326,3523.3671,N,13925.7833,E,1,04,,-10.0,M,,M,,*6E
$GPRMC,004327,A,3523.3658,N,13925.7755,E,23.1,258.4,131204,6.6,W*5B
$GPGGA,004327,3523.3658,N,13925.7755,E,1,04,,-10.0,M,,M,,*6B
$GPRMC,004328,A,3523.3645,N,13925.7678,E,23.1,258.4,131204,6.6,W*56
$GPGGA,004328,3523.3645,N,13925.7678,E,1,04,,-9.5,M,,M,,*5B
$GPRMC,004329,A,3523.3645,N,13925.7601,E,22.7,270.0,131204,6.6,W*50
$GPGGA,004329,3523.3645,N,13925.7601,E,1,04,,-9.5,M,,M,,*54
$GPRMC,004330,A,3523.3632,N,13925.7524,E,23.1,258.4,131204,6.6,W*55
$GPGGA,004330,3523.3632,N,13925.7524,E,1,04,,-9.0,M,,M,,*5D
$GPRMC,004331,A,3523.3619,N,13925.7459,E,19.4,256.2,131204,6.6,W*52
$GPGGA,004331,3523.3619,N,13925.7459,E,1,04,,-8.5,M,,M,,*5A
$GPRMC,004332,A,3523.3619,N,13925.7395,E,18.9,270.0,131204,6.6,W*5C
$GPGGA,004332,3523.3619,N,13925.7395,E,1,04,,-8.5,M,,M,,*5E
$GPRMC,004333,A,3523.3619,N,13925.7343,E,15.1,270.0,131204,6.6,W*53
$GPGGA,004333,3523.3619,N,13925.7343,E,1,04,,-8.5,M,,M,,*54
$GPRMC,004334,A,3523.3632,N,13925.7331,E,5.9,320.8,131204,6.6,W*6D
$GPGGA,004334,3523.3632,N,13925.7331,E,1,04,,-8.0,M,,M,,*5A
$GPRMC,004335,A,3523.3658,N,13925.7305,E,11.9,320.8,131204,6.6,W*52
$GPGGA,004335,3523.3658,N,13925.7305,E,1,04,,-7.6,M,,M,,*59
$GPRMC,004336,A,3523.3671,N,13925.7279,E,8.8,301.5,131204,6.6,W*67
$GPGGA,004336,3523.3671,N,13925.7279,E,1,04,,-7.6,M,,M,,*5B
$GPRMC,004337,A,3523.3684,N,13925.7240,E,12.2,292.2,131204,6.6,W*5B
$GPGGA,004337,3523.3684,N,13925.7240,E,1,04,,-7.6,M,,M,,*5A
$GPRMC,004338,A,3523.3709,N,13925.7215,E,11.9,320.8,131204,6.6,W*5A
$GPGGA,004338,3523.3709,N,13925.7215,E,1,04,,-7.6,M,,M,,*51
$GPRMC,004339,A,3523.3709,N,13925.7189,E,7.5,270.0,131204,6.6,W*6A
$GPGGA,004339,3523.3709,N,13925.7189,E,1,04,,-7.6,M,,M,,*56
$GPRMC,004340,A,3523.3722,N,13925.7150,E,12.2,292.2,131204,6.6,W*54
$GPGGA,004340,3523.3722,N,13925.7150,E,1,04,,-8.0,M,,M,,*5C
$GPRMC,004341,A,3523.3722,N,13925.7099,E,15.1,270.0,131204,6.6,W*5B
$GPGGA,004341,3523.3722,N,13925.7099,E,1,04,,-7.6,M,,M,,*50
$GPRMC,004342,A,3523.3735,N,13925.7060,E,12.2,292.2,131204,6.6,W*52
$GPGGA,004342,3523.3735,N,13925.7060,E,1,04,,-7.6,M,,M,,*53
$GPRMC,004343,A,3523.3735,N,13925.7034,E,7.5,270.0,131204,6.6,W*6F
$GPGGA,004343,3523.3735,N,13925.7034,E,1,04,,-8.0,M,,M,,*5A
$GPRMC,004344,A,3523.3735,N,13925.7034,E,0.0,270.0,131204,6.6,W*6A
$GPGGA,004344,3523.3735,N,13925.7034,E,1,04,,-8.0,M,,M,,*5D
$GPRMC,004345,A,3523.3735,N,13925.7034,E,0.0,270.0,131204,6.6,W*6B
$GPGGA,004345,3523.3735,N,13925.7034,E,1,04,,-7.6,M,,M,,*55
$GPRMC,004346,A,3523.3735,N,13925.7034,E,0.0,270.0,131204,6.6,W*68
$GPGGA,004346,3523.3735,N,13925.7034,E,1,04,,-7.6,M,,M,,*56
$GPRMC,004347,A,3523.3735,N,13925.7034,E,0.0,270.0,131204,6.6,W*69
$GPGGA,004347,3523.3735,N,13925.7034,E,1,04,,-7.6,M,,M,,*57
$GPRMC,004348,A,3523.3735,N,13925.7034,E,0.0,270.0,131204,6.6,W*66
$GPGGA,004348,3523.3735,N,13925.7034,E,1,04,,-7.6,M,,M,,*58
$GPRMC,004349,A,3523.3735,N,13925.7034,E,0.0,270.0,131204,6.6,W*67
$GPGGA,004349,3523.3735,N,13925.7034,E,1,04,,-7.1,M,,M,,*5E
$GPRMC,004350,A,3523.3735,N,13925.7047,E,3.7,89.9,131204,6.6,W*52
$GPGGA,004350,3523.3735,N,13925.7047,E,1,04,,-7.6,M,,M,,*55
$GPRMC,004351,A,3523.3735,N,13925.7047,E,0.0,89.9,131204,6.6,W*57
$GPGGA,004351,3523.3735,N,13925.7047,E,1,04,,-7.6,M,,M,,*54
$GPRMC,004352,A,3523.3722,N,13925.7060,E,5.9,140.8,131204,6.6,W*6E
$GPGGA,004352,3523.3722,N,13925.7060,E,1,04,,-7.6,M,,M,,*54
$GPRMC,004353,A,3523.3722,N,13925.7060,E,0.0,140.8,131204,6.6,W*63
$GPGGA,004353,3523.3722,N,13925.7060,E,1,04,,-8.0,M,,M,,*5C
$GPRMC,004354,A,3523.3722,N,13925.7060,E,0.0,140.8,131204,6.6,W*64
$GPGGA,004354,3523.3722,N,13925.7060,E,1,04,,-8.0,M,,M,,*5B
$GPRMC,004355,A,3523.3722,N,13925.7073,E,3.7,89.9,131204,6.6,W*56
$GPGGA,004355,3523.3722,N,13925.7073,E,1,04,,-7.6,M,,M,,*51
$GPRMC,004356,A,3523.3709,N,13925.7073,E,4.6,180.0,131204,6.6,W*6B
$GPGGA,004356,3523.3709,N,13925.7073,E,1,04,,-8.0,M,,M,,*52
$GPRMC,004357,A,3523.3709,N,13925.7073,E,0.0,180.0,131204,6.6,W*68
$GPGGA,004357,3523.3709,N,13925.7073,E,1,04,,-7.6,M,,M,,*5A
$GPRMC,004358,A,3523.3709,N,13925.7086,E,3.7,89.9,131204,6.6,W*58
$GPGGA,004358,3523.3709,N,13925.7086,E,1,04,,-8.0,M,,M,,*56
$GPRMC,004359,A,3523.3709,N,13925.7086,E,0.0,89.9,131204,6.6,W*5D
$GPGGA,004359,3523.3709,N,13925.7086,E,1,04,,-8.0,M,,M,,*57
$GPRMC,004400,A,3523.3709,N,13925.7086,E,0.0,89.9,131204,6.6,W*56
$GPGGA,004400,3523.3709,N,13925.7086,E,1,04,,-8.5,M,,M,,*59
$GPRMC,004401,A,3523.3709,N,13925.7086,E,0.0,89.9,131204,6.6,W*57
$GPGGA,004401,3523.3709,N,13925.7086,E,1,04,,-8.5,M,,M,,*58
$GPRMC,004402,A,3523.3709,N,13925.7086,E,0.0,89.9,131204,6.6,W*54
$GPGGA,004402,3523.3709,N,13925.7086,E,1,04,,-11.4,M,,M,,*62
$GPRMC,004403,A,3523.3696,N,13925.7099,E,5.9,140.8,131204,6.6,W*65
$GPGGA,004403,3523.3696,N,13925.7099,E,1,04,,-10.9,M,,M,,*66
$GPRMC,004404,A,3523.3696,N,13925.7099,E,0.0,140.8,131204,6.6,W*6E
$GPGGA,004404,3523.3696,N,13925.7099,E,1,04,,-8.5,M,,M,,*54
$GPRMC,004405,A,3523.3696,N,13925.7086,E,3.7,270.0,131204,6.6,W*6D
$GPGGA,004405,3523.3696,N,13925.7086,E,1,04,,-8.5,M,,M,,*5B
$GPRMC,004406,A,3523.3684,N,13925.7086,E,4.6,179.9,131204,6.6,W*68
$GPGGA,004406,3523.3684,N,13925.7086,E,1,04,,-9.0,M,,M,,*5F
$GPRMC,004407,A,3523.3684,N,13925.7073,E,3.7,270.0,131204,6.6,W*66
$GPGGA,004407,3523.3684,N,13925.7073,E,1,04,,-9.0,M,,M,,*54
$GPRMC,004408,A,3523.3684,N,13925.7073,E,0.0,270.0,131204,6.6,W*6D
$GPGGA,004408,3523.3684,N,13925.7073,E,1,04,,-8.5,M,,M,,*5F
$GPRMC,004409,A,3523.3684,N,13925.7060,E,3.7,270.0,131204,6.6,W*6A
$GPGGA,004409,3523.3684,N,13925.7060,E,1,04,,-8.5,M,,M,,*5C
$GPRMC,004410,A,3523.3671,N,13925.7060,E,4.6,179.9,131204,6.6,W*6D
$GPGGA,004410,3523.3671,N,13925.7060,E,1,04,,-9.5,M,,M,,*5F
$GPRMC,004411,A,3523.3671,N,13925.7047,E,3.7,270.0,131204,6.6,W*6C
$GPGGA,004411,3523.3671,N,13925.7047,E,1,04,,-9.5,M,,M,,*5B
$GPRMC,004412,A,3523.3658,N,13925.7047,E,4.6,179.9,131204,6.6,W*61
$GPGGA,004412,3523.3658,N,13925.7047,E,1,04,,-9.0,M,,M,,*56
$GPRMC,004413,A,3523.3658,N,13925.7047,E,0.0,179.9,131204,6.6,W*62
$GPGGA,004413,3523.3658,N,13925.7047,E,1,04,,-9.5,M,,M,,*52
$GPRMC,004414,A,3523.3645,N,13925.7034,E,5.9,219.1,131204,6.6,W*6C
$GPGGA,004414,3523.3645,N,13925.7034,E,1,04,,-10.0,M,,M,,*60
$GPRMC,004415,A,3523.3645,N,13925.7034,E,0.0,219.1,131204,6.6,W*61
$GPGGA,004415,3523.3645,N,13925.7034,E,1,04,,-9.0,M,,M,,*59
$GPRMC,004416,A,3523.3645,N,13925.7022,E,3.7,270.0,131204,6.6,W*6F
$GPGGA,004416,3523.3645,N,13925.7022,E,1,04,,-10.0,M,,M,,*65
$GPRMC,004417,A,3523.3645,N,13925.7009,E,3.7,270.0,131204,6.6,W*67
$GPGGA,004417,3523.3645,N,13925.7009,E,1,04,,-10.0,M,,M,,*6D
$GPRMC,004418,A,3523.3645,N,13925.7009,E,0.0,270.0,131204,6.6,W*6C
$GPGGA,004418,3523.3645,N,13925.7009,E,1,04,,-10.4,M,,M,,*66
$GPRMC,004419,A,3523.3645,N,13925.6996,E,3.7,270.0,131204,6.6,W*67
$GPGGA,004419,3523.3645,N,13925.6996,E,1,04,,-9.5,M,,M,,*50
$GPRMC,004420,A,3523.3645,N,13925.6996,E,0.0,270.0,131204,6.6,W*69
$GPGGA,004420,3523.3645,N,13925.6996,E,1,04,,-9.5,M,,M,,*5A
$GPRMC,004421,A,3523.3645,N,13925.6983,E,3.7,270.0,131204,6.6,W*68
$GPGGA,004421,3523.3645,N,13925.6983,E,1,04,,-9.5,M,,M,,*5F
$GPRMC,004422,A,3523.3645,N,13925.6970,E,3.7,270.0,131204,6.6,W*67
$GPGGA,004422,3523.3645,N,13925.6970,E,1,04,,-9.5,M,,M,,*50
$GPRMC,004423,A,3523.3645,N,13925.6970,E,0.0,270.0,131204,6.6,W*62
$GPGGA,004423,3523.3645,N,13925.6970,E,1,04,,-9.5,M,,M,,*51
$GPRMC,004424,A,3523.3645,N,13925.6957,E,3.7,270.0,131204,6.6,W*64
$GPGGA,004424,3523.3645,N,13925.6957,E,1,04,,-9.5,M,,M,,*53
$GPRMC,004425,A,3523.3645,N,13925.6944,E,3.7,270.0,131204,6.6,W*67
$GPGGA,004425,3523.3645,N,13925.6944,E,1,04,,-9.5,M,,M,,*50
$GPRMC,004426,A,3523.3645,N,13925.6944,E,0.0,270.0,131204,6.6,W*60
$GPGGA,004426,3523.3645,N,13925.6944,E,1,04,,-9.5,M,,M,,*53
$GPRMC,004427,A,3523.3645,N,13925.6931,E,3.7,270.0,131204,6.6,W*67
$GPGGA,004427,3523.3645,N,13925.6931,E,1,04,,-9.5,M,,M,,*50
$GPRMC,004428,A,3523.3645,N,13925.6931,E,0.0,270.0,131204,6.6,W*6C
$GPGGA,004428,3523.3645,N,13925.6931,E,1,04,,-9.5,M,,M,,*5F
$GPRMC,004429,A,3523.3645,N,13925.6919,E,3.7,270.0,131204,6.6,W*63
$GPGGA,004429,3523.3645,N,13925.6919,E,1,04,,-9.0,M,,M,,*51
$GPRMC,004430,A,3523.3645,N,13925.6906,E,3.7,270.0,131204,6.6,W*65
$GPGGA,004430,3523.3645,N,13925.6906,E,1,04,,-9.0,M,,M,,*57
$GPRMC,004431,A,3523.3645,N,13925.6906,E,0.0,270.0,131204,6.6,W*60
$GPGGA,004431,3523.3645,N,13925.6906,E,1,04,,-9.0,M,,M,,*56
$GPRMC,004432,A,3523.3645,N,13925.6893,E,3.7,270.0,131204,6.6,W*6A
$GPGGA,004432,3523.3645,N,13925.6893,E,1,04,,-9.0,M,,M,,*58
$GPRMC,004433,A,3523.3645,N,13925.6880,E,3.7,270.0,131204,6.6,W*69
$GPGGA,004433,3523.3645,N,13925.6880,E,1,04,,-9.0,M,,M,,*5B
$GPRMC,004434,A,3523.3645,N,13925.6880,E,0.0,270.0,131204,6.6,W*6A
$GPGGA,004434,3523.3645,N,13925.6880,E,1,04,,-9.0,M,,M,,*5C
$GPRMC,004435,A,3523.3645,N,13925.6867,E,3.7,270.0,131204,6.6,W*66
$GPGGA,004435,3523.3645,N,13925.6867,E,1,04,,-9.0,M,,M,,*54
$GPRMC,004436,A,3523.3645,N,13925.6867,E,0.0,270.0,131204,6.6,W*61
$GPGGA,004436,3523.3645,N,13925.6867,E,1,04,,-9.0,M,,M,,*57
$GPRMC,004437,A,3523.3645,N,13925.6854,E,3.7,270.0,131204,6.6,W*64
$GPGGA,004437,3523.3645,N,13925.6854,E,1,04,,-9.5,M,,M,,*53
$GPRMC,004438,A,3523.3645,N,13925.6841,E,3.7,270.0,131204,6.6,W*6F
$GPGGA,004438,3523.3645,N,13925.6841,E,1,04,,-9.5,M,,M,,*58
$GPRMC,004439,A,3523.3645,N,13925.6841,E,0.0,270.0,131204,6.6,W*6A
$GPGGA,004439,3523.3645,N,13925.6841,E,1,04,,-9.5,M,,M,,*59
$GPRMC,004440,A,3523.3645,N,13925.6828,E,3.7,270.0,131204,6.6,W*6F
$GPGGA,004440,3523.3645,N,13925.6828,E,1,04,,-9.5,M,,M,,*58
$GPRMC,004441,A,3523.3645,N,13925.6816,E,3.7,270.0,131204,6.6,W*63
$GPGGA,004441,3523.3645,N,13925.6816,E,1,04,,-9.5,M,,M,,*54
$GPRMC,004442,A,3523.3645,N,13925.6816,E,0.0,270.0,131204,6.6,W*64
$GPGGA,004442,3523.3645,N,13925.6816,E,1,04,,-9.5,M,,M,,*57
$GPRMC,004443,A,3523.3645,N,13925.6803,E,3.7,270.0,131204,6.6,W*65
$GPGGA,004443,3523.3645,N,13925.6803,E,1,04,,-9.5,M,,M,,*52
$GPRMC,004444,A,3523.3645,N,13925.6790,E,3.7,270.0,131204,6.6,W*67
$GPGGA,004444,3523.3645,N,13925.6790,E,1,04,,-9.5,M,,M,,*50
$GPRMC,004445,A,3523.3658,N,13925.6790,E,4.6,0.0,131204,6.6,W*69
$GPGGA,004445,3523.3658,N,13925.6790,E,1,04,,-9.5,M,,M,,*5D
$GPRMC,004449,A,3523.3658,N,13925.6751,E,2.8,270.0,131204,6.6,W*65
$GPGGA,004449,3523.3658,N,13925.6751,E,1,04,,-10.0,M,,M,,*61
$GPRMC,004450,A,3523.3658,N,13925.6738,E,3.7,270.0,131204,6.6,W*6C
$GPGGA,004450,3523.3658,N,13925.6738,E,1,04,,-9.5,M,,M,,*5B
$GPRMC,004451,A,3523.3658,N,13925.6738,E,0.0,270.0,131204,6.6,W*69
$GPGGA,004451,3523.3658,N,13925.6738,E,1,04,,-10.0,M,,M,,*67
$GPRMC,004453,A,3523.3658,N,13925.6713,E,3.7,270.0,131204,6.6,W*66
$GPGGA,004453,3523.3658,N,13925.6713,E,1,04,,-10.0,M,,M,,*6C
$GPRMC,004454,A,3523.3671,N,13925.6713,E,4.6,0.0,131204,6.6,W*69
$GPGGA,004454,3523.3671,N,13925.6713,E,1,04,,-9.5,M,,M,,*5D
$GPRMC,004455,A,3523.3671,N,13925.6700,E,3.7,270.0,131204,6.6,W*69
$GPGGA,004455,3523.3671,N,13925.6700,E,1,04,,-10.0,M,,M,,*63
$GPRMC,004456,A,3523.3671,N,13925.6687,E,3.7,270.0,131204,6.6,W*64
$GPGGA,004456,3523.3671,N,13925.6687,E,1,04,,-13.3,M,,M,,*6E
$GPRMC,004457,A,3523.3671,N,13925.6687,E,0.0,270.0,131204,6.6,W*61
$GPGGA,004457,3523.3671,N,13925.6687,E,1,04,,-10.0,M,,M,,*6F
$GPRMC,004458,A,3523.3671,N,13925.6674,E,3.7,270.0,131204,6.6,W*66
$GPGGA,004458,3523.3671,N,13925.6674,E,1,04,,-10.4,M,,M,,*68
$GPRMC,004500,A,3523.3671,N,13925.6661,E,1.8,270.0,131204,6.6,W*63
$GPGGA,004500,3523.3671,N,13925.6661,E,1,04,,-9.5,M,,M,,*59
$GPRMC,004501,A,3523.3671,N,13925.6648,E,3.7,270.0,131204,6.6,W*64
$GPGGA,004501,3523.3671,N,13925.6648,E,1,04,,-10.4,M,,M,,*6A
$GPRMC,004502,A,3523.3671,N,13925.6635,E,3.7,270.0,131204,6.6,W*6D
$GPGGA,004502,3523.3671,N,13925.6635,E,1,04,,-10.0,M,,M,,*67
$GPRMC,004503,A,3523.3671,N,13925.6635,E,0.0,270.0,131204,6.6,W*68
$GPGGA,004503,3523.3671,N,13925.6635,E,1,04,,-10.0,M,,M,,*66
$GPRMC,004504,A,3523.3671,N,13925.6622,E,3.7,270.0,131204,6.6,W*6D
$GPGGA,004504,3523.3671,N,13925.6622,E,1,04,,-10.0,M,,M,,*67
$GPRMC,004505,A,3523.3684,N,13925.6622,E,4.6,0.0,131204,6.6,W*65
$GPGGA,004505,3523.3684,N,13925.6622,E,1,04,,-10.0,M,,M,,*6C
$GPRMC,004506,A,3523.3684,N,13925.6610,E,3.7,270.0,131204,6.6,W*64
$GPGGA,004506,3523.3684,N,13925.6610,E,1,04,,-10.4,M,,M,,*6A
$GPRMC,004507,A,3523.3684,N,13925.6597,E,3.7,270.0,131204,6.6,W*69
$GPGGA,004507,3523.3684,N,13925.6597,E,1,04,,-10.9,M,,M,,*6A
$GPRMC,004508,A,3523.3684,N,13925.6597,E,0.0,270.0,131204,6.6,W*62
$GPGGA,004508,3523.3684,N,13925.6597,E,1,04,,-10.9,M,,M,,*65
$GPRMC,004509,A,3523.3684,N,13925.6584,E,3.7,270.0,131204,6.6,W*65
$GPGGA,004509,3523.3684,N,13925.6584,E,1,04,,-10.9,M,,M,,*66
$GPRMC,004510,A,3523.3671,N,13925.6584,E,4.6,179.9,131204,6.6,W*62
$GPGGA,004510,3523.3671,N,13925.6584,E,1,04,,-10.4,M,,M,,*69
$GPRMC,004511,A,3523.3671,N,13925.6571,E,3.7,270.0,131204,6.6,W*6C
$GPGGA,004511,3523.3671,N,13925.6571,E,1,04,,-10.9,M,,M,,*6F
$GPRMC,004512,A,3523.3671,N,13925.6571,E,0.0,270.0,131204,6.6,W*6B
$GPGGA,004512,3523.3671,N,13925.6571,E,1,04,,-10.9,M,,M,,*6C
$GPRMC,004513,A,3523.3671,N,13925.6571,E,0.0,270.0,131204,6.6,W*6A
$GPGGA,004513,3523.3671,N,13925.6571,E,1,04,,-10.4,M,,M,,*60
$GPRMC,004514,A,3523.3671,N,13925.6558,E,3.7,270.0,131204,6.6,W*62
$GPGGA,004514,3523.3671,N,13925.6558,E,1,04,,-10.4,M,,M,,*6C
$GPRMC,004515,A,3523.3671,N,13925.6558,E,0.0,270.0,131204,6.6,W*67
$GPGGA,004515,3523.3671,N,13925.6558,E,1,04,,-11.4,M,,M,,*6C
$GPRMC,004516,A,3523.3658,N,13925.6545,E,5.9,219.1,131204,6.6,W*61
$GPGGA,004516,3523.3658,N,13925.6545,E,1,04,,-10.9,M,,M,,*64
$GPRMC,004517,A,3523.3658,N,13925.6532,E,3.7,270.0,131204,6.6,W*66
$GPGGA,004517,3523.3658,N,13925.6532,E,1,04,,-11.4,M,,M,,*69
$GPRMC,004518,A,3523.3658,N,13925.6519,E,3.7,270.0,131204,6.6,W*60
$GPGGA,004518,3523.3658,N,13925.6519,E,1,04,,-10.9,M,,M,,*63
$GPRMC,004519,A,3523.3658,N,13925.6519,E,0.0,270.0,131204,6.6,W*65
$GPGGA,004519,3523.3658,N,13925.6519,E,1,04,,-11.4,M,,M,,*6E
$GPRMC,004520,A,3523.3658,N,13925.6507,E,3.7,270.0,131204,6.6,W*64
$GPGGA,004520,3523.3658,N,13925.6507,E,1,04,,-12.4,M,,M,,*68
$GPRMC,004521,A,3523.3658,N,13925.6494,E,3.7,270.0,131204,6.6,W*6E
$GPGGA,004521,3523.3658,N,13925.6494,E,1,04,,-12.4,M,,M,,*62
$GPRMC,004522,A,3523.3658,N,13925.6494,E,0.0,270.0,131204,6.6,W*69
$GPGGA,004522,3523.3658,N,13925.6494,E,1,04,,-12.8,M,,M,,*6D
$GPRMC,004523,A,3523.3671,N,13925.6481,E,5.9,320.8,131204,6.6,W*67
$GPGGA,004523,3523.3671,N,13925.6481,E,1,04,,-12.4,M,,M,,*6F
$GPRMC,004524,A,3523.3671,N,13925.6468,E,3.7,270.0,131204,6.6,W*63
$GPGGA,004524,3523.3671,N,13925.6468,E,1,04,,-12.4,M,,M,,*6F
$GPRMC,004525,A,3523.3658,N,13925.6468,E,4.6,179.9,131204,6.6,W*6C
$GPGGA,004525,3523.3658,N,13925.6468,E,1,04,,-12.8,M,,M,,*69
$GPRMC,004526,A,3523.3658,N,13925.6455,E,3.7,270.0,131204,6.6,W*64
$GPGGA,004526,3523.3658,N,13925.6455,E,1,04,,-12.4,M,,M,,*68
$GPRMC,004527,A,3523.3658,N,13925.6455,E,0.0,270.0,131204,6.6,W*61
$GPGGA,004527,3523.3658,N,13925.6455,E,1,04,,-12.8,M,,M,,*65
$GPRMC,004528,A,3523.3658,N,13925.6442,E,3.7,270.0,131204,6.6,W*6C
$GPGGA,004528,3523.3658,N,13925.6442,E,1,04,,-13.3,M,,M,,*66
$GPRMC,004529,A,3523.3658,N,13925.6442,E,0.0,270.0,131204,6.6,W*69
$GPGGA,004529,3523.3658,N,13925.6442,E,1,04,,-13.8,M,,M,,*6C
$GPRMC,004530,A,3523.3645,N,13925.6429,E,5.9,219.1,131204,6.6,W*62
$GPGGA,004530,3523.3645,N,13925.6429,E,1,04,,-13.8,M,,M,,*65
$GPRMC,004531,A,3523.3645,N,13925.6416,E,3.7,270.0,131204,6.6,W*69
$GPGGA,004531,3523.3645,N,13925.6416,E,1,04,,-14.3,M,,M,,*64
$GPRMC,004532,A,3523.3645,N,13925.6404,E,3.7,270.0,131204,6.6,W*69
$GPGGA,004532,3523.3645,N,13925.6404,E,1,04,,-14.8,M,,M,,*6F
$GPRMC,004533,A,3523.3645,N,13925.6391,E,3.7,270.0,131204,6.6,W*63
$GPGGA,004533,3523.3645,N,13925.6391,E,1,04,,-14.8,M,,M,,*65
$GPRMC,004534,A,3523.3645,N,13925.6391,E,0.0,270.0,131204,6.6,W*60
$GPGGA,004534,3523.3645,N,13925.6391,E,1,04,,-14.8,M,,M,,*62
$GPRMC,004535,A,3523.3645,N,13925.6378,E,3.7,270.0,131204,6.6,W*62
$GPGGA,004535,3523.3645,N,13925.6378,E,1,04,,-15.2,M,,M,,*6F
$GPRMC,004536,A,3523.3645,N,13925.6365,E,3.7,270.0,131204,6.6,W*6D
$GPGGA,004536,3523.3645,N,13925.6365,E,1,04,,-15.7,M,,M,,*65
$GPRMC,004537,A,3523.3645,N,13925.6365,E,0.0,270.0,131204,6.6,W*68
$GPGGA,004537,3523.3645,N,13925.6365,E,1,04,,-16.2,M,,M,,*62
$GPRMC,004538,A,3523.3645,N,13925.6352,E,3.7,270.0,131204,6.6,W*67
$GPGGA,004538,3523.3645,N,13925.6352,E,1,04,,-16.2,M,,M,,*69
$GPRMC,004539,A,3523.3645,N,13925.6339,E,3.7,270.0,131204,6.6,W*6B
$GPGGA,004539,3523.3645,N,13925.6339,E,1,04,,-16.2,M,,M,,*65
$GPRMC,004540,A,3523.3645,N,13925.6326,E,3.7,270.0,131204,6.6,W*6B
$GPGGA,004540,3523.3645,N,13925.6326,E,1,04,,-16.2,M,,M,,*65
$GPRMC,004541,A,3523.3645,N,13925.6326,E,0.0,270.0,131204,6.6,W*6E
$GPGGA,004541,3523.3645,N,13925.6326,E,1,04,,-16.7,M,,M,,*61
$GPRMC,004542,A,3523.3645,N,13925.6313,E,3.7,270.0,131204,6.6,W*6F
$GPGGA,004542,3523.3645,N,13925.6313,E,1,04,,-17.2,M,,M,,*60
$GPRMC,004543,A,3523.3645,N,13925.6301,E,3.7,270.0,131204,6.6,W*6D
$GPGGA,004543,3523.3645,N,13925.6301,E,1,04,,-17.2,M,,M,,*62
$GPRMC,004544,A,3523.3645,N,13925.6301,E,0.0,270.0,131204,6.6,W*6E
$GPGGA,004544,3523.3645,N,13925.6301,E,1,04,,-16.7,M,,M,,*61
$GPRMC,004545,A,3523.3645,N,13925.6288,E,3.7,270.0,131204,6.6,W*6B
$GPGGA,004545,3523.3645,N,13925.6288,E,1,04,,-18.1,M,,M,,*68
$GPRMC,004546,A,3523.3645,N,13925.6275,E,3.7,270.0,131204,6.6,W*6A
$GPGGA,004546,3523.3645,N,13925.6275,E,1,04,,-17.6,M,,M,,*61
$GPRMC,004547,A,3523.3645,N,13925.6262,E,3.7,270.0,131204,6.6,W*6D
$GPGGA,004547,3523.3645,N,13925.6262,E,1,04,,-18.1,M,,M,,*6E
$GPRMC,004548,A,3523.3645,N,13925.6262,E,0.0,270.0,131204,6.6,W*66
$GPGGA,004548,3523.3645,N,13925.6262,E,1,04,,-18.1,M,,M,,*61
$GPRMC,004549,A,3523.3645,N,13925.6249,E,3.7,270.0,131204,6.6,W*6A
$GPGGA,004549,3523.3645,N,13925.6249,E,1,04,,-18.1,M,,M,,*69
$GPRMC,004550,A,3523.3645,N,13925.6236,E,3.7,270.0,131204,6.6,W*6A
$GPGGA,004550,3523.3645,N,13925.6236,E,1,04,,-18.1,M,,M,,*69
$GPRMC,004551,A,3523.3645,N,13925.6236,E,0.0,270.0,131204,6.6,W*6F
$GPGGA,004551,3523.3645,N,13925.6236,E,1,04,,-19.6,M,,M,,*6E
$GPRMC,004552,A,3523.3645,N,13925.6223,E,3.7,270.0,131204,6.6,W*6C
$GPGGA,004552,3523.3645,N,13925.6223,E,1,04,,-18.1,M,,M,,*6F
$GPRMC,004553,A,3523.3658,N,13925.6210,E,5.9,320.8,131204,6.6,W*65
$GPGGA,004553,3523.3658,N,13925.6210,E,1,04,,-18.6,M,,M,,*65
$GPRMC,004554,A,3523.3658,N,13925.6198,E,3.7,270.0,131204,6.6,W*65
$GPGGA,004554,3523.3658,N,13925.6198,E,1,04,,-18.6,M,,M,,*61
$GPRMC,004555,A,3523.3658,N,13925.6198,E,0.0,270.0,131204,6.6,W*60
$GPGGA,004555,3523.3658,N,13925.6198,E,1,04,,-18.6,M,,M,,*60
$GPRMC,004556,A,3523.3658,N,13925.6185,E,3.7,270.0,131204,6.6,W*6B
$GPGGA,004556,3523.3658,N,13925.6185,E,1,04,,-18.6,M,,M,,*6F
$GPRMC,004557,A,3523.3658,N,13925.6172,E,3.7,270.0,131204,6.6,W*62
$GPGGA,004557,3523.3658,N,13925.6172,E,1,04,,-18.6,M,,M,,*66
$GPRMC,004558,A,3523.3658,N,13925.6159,E,3.7,270.0,131204,6.6,W*64
$GPGGA,004558,3523.3658,N,13925.6159,E,1,04,,-19.1,M,,M,,*66
$GPRMC,004559,A,3523.3658,N,13925.6159,E,0.0,270.0,131204,6.6,W*61
$GPGGA,004559,3523.3658,N,13925.6159,E,1,04,,-19.1,M,,M,,*67
$GPRMC,004600,A,3523.3658,N,13925.6146,E,3.7,270.0,131204,6.6,W*64
$GPGGA,004600,3523.3658,N,13925.6146,E,1,04,,-19.1,M,,M,,*66
$GPRMC,004601,A,3523.3658,N,13925.6133,E,3.7,270.0,131204,6.6,W*67
$GPGGA,004601,3523.3658,N,13925.6133,E,1,04,,-19.6,M,,M,,*62
$GPRMC,004602,A,3523.3658,N,13925.6120,E,3.7,270.0,131204,6.6,W*66
$GPGGA,004602,3523.3658,N,13925.6120,E,1,04,,-19.1,M,,M,,*64
$GPRMC,004603,A,3523.3658,N,13925.6107,E,3.7,270.0,131204,6.6,W*62
$GPGGA,004603,3523.3658,N,13925.6107,E,1,04,,-20.5,M,,M,,*6E
$GPRMC,004604,A,3523.3658,N,13925.6107,E,0.0,270.0,131204,6.6,W*61
$GPGGA,004604,3523.3658,N,13925.6107,E,1,04,,-20.1,M,,M,,*6D
$GPRMC,004605,A,3523.3658,N,13925.6095,E,3.7,270.0,131204,6.6,W*6E
$GPGGA,004605,3523.3658,N,13925.6095,E,1,04,,-20.5,M,,M,,*62
$GPRMC,004606,A,3523.3658,N,13925.6082,E,3.7,270.0,131204,6.6,W*6B
$GPGGA,004606,3523.3658,N,13925.6082,E,1,04,,-21.5,M,,M,,*66
$GPRMC,004607,A,3523.3658,N,13925.6069,E,3.7,270.0,131204,6.6,W*6F
$GPGGA,004607,3523.3658,N,13925.6069,E,1,04,,-21.0,M,,M,,*67
$GPRMC,004608,A,3523.3658,N,13925.6056,E,3.7,270.0,131204,6.6,W*6C
$GPGGA,004608,3523.3658,N,13925.6056,E,1,04,,-21.5,M,,M,,*61
$GPRMC,004609,A,3523.3658,N,13925.6056,E,0.0,270.0,131204,6.6,W*69
$GPGGA,004609,3523.3658,N,13925.6056,E,1,04,,-21.5,M,,M,,*60
$GPRMC,004610,A,3523.3658,N,13925.6043,E,3.7,270.0,131204,6.6,W*61
$GPGGA,004610,3523.3658,N,13925.6043,E,1,04,,-21.0,M,,M,,*69
$GPRMC,004611,A,3523.3658,N,13925.6030,E,3.7,270.0,131204,6.6,W*64
$GPGGA,004611,3523.3658,N,13925.6030,E,1,04,,-20.5,M,,M,,*68
$GPRMC,004612,A,3523.3658,N,13925.6017,E,3.7,270.0,131204,6.6,W*62
$GPGGA,004612,3523.3658,N,13925.6017,E,1,04,,-20.5,M,,M,,*6E
$GPRMC,004613,A,3523.3658,N,13925.6004,E,3.7,270.0,131204,6.6,W*61
$GPGGA,004613,3523.3658,N,13925.6004,E,1,04,,-21.0,M,,M,,*69
$GPRMC,004614,A,3523.3658,N,13925.6004,E,0.0,270.0,131204,6.6,W*62
$GPGGA,004614,3523.3658,N,13925.6004,E,1,04,,-21.0,M,,M,,*6E
$GPRMC,004615,A,3523.3658,N,13925.5992,E,3.7,270.0,131204,6.6,W*62
$GPGGA,004615,3523.3658,N,13925.5992,E,1,04,,-20.5,M,,M,,*6E
$GPRMC,004616,A,3523.3658,N,13925.5979,E,3.7,270.0,131204,6.6,W*64
$GPGGA,004616,3523.3658,N,13925.5979,E,1,04,,-21.0,M,,M,,*6C
$GPRMC,004617,A,3523.3658,N,13925.5966,E,3.7,270.0,131204,6.6,W*6B
$GPGGA,004617,3523.3658,N,13925.5966,E,1,04,,-21.5,M,,M,,*66
$GPRMC,004618,A,3523.3658,N,13925.5966,E,0.0,270.0,131204,6.6,W*60
$GPGGA,004618,3523.3658,N,13925.5966,E,1,04,,-21.5,M,,M,,*69
$GPRMC,004619,A,3523.3658,N,13925.5953,E,3.7,270.0,131204,6.6,W*63
$GPGGA,004619,3523.3658,N,13925.5953,E,1,04,,-21.5,M,,M,,*6E
$GPRMC,004620,A,3523.3645,N,13925.5940,E,5.9,219.1,131204,6.6,W*61
$GPGGA,004620,3523.3645,N,13925.5940,E,1,04,,-21.5,M,,M,,*6A
$GPRMC,004621,A,3523.3645,N,13925.5927,E,3.7,270.0,131204,6.6,W*67
$GPGGA,004621,3523.3645,N,13925.5927,E,1,04,,-22.0,M,,M,,*6C
$GPRMC,004622,A,3523.3645,N,13925.5914,E,3.7,270.0,131204,6.6,W*64
$GPGGA,004622,3523.3645,N,13925.5914,E,1,04,,-22.9,M,,M,,*66
$GPRMC,004623,A,3523.3645,N,13925.5914,E,0.0,270.0,131204,6.6,W*61
$GPGGA,004623,3523.3645,N,13925.5914,E,1,04,,-22.9,M,,M,,*67
$GPRMC,004624,A,3523.3645,N,13925.5901,E,3.7,270.0,131204,6.6,W*66
$GPGGA,004624,3523.3645,N,13925.5901,E,1,04,,-22.9,M,,M,,*64
$GPRMC,004625,A,3523.3645,N,13925.5889,E,3.7,270.0,131204,6.6,W*66
$GPGGA,004625,3523.3645,N,13925.5889,E,1,04,,-23.9,M,,M,,*65
$GPRMC,004626,A,3523.3632,N,13925.5876,E,5.9,219.1,131204,6.6,W*63
$GPGGA,004626,3523.3632,N,13925.5876,E,1,04,,-23.9,M,,M,,*66
$GPRMC,004627,A,3523.3632,N,13925.5876,E,0.0,219.1,131204,6.6,W*6E
$GPGGA,004627,3523.3632,N,13925.5876,E,1,04,,-23.4,M,,M,,*6A
$GPRMC,004628,A,3523.3632,N,13925.5863,E,3.7,270.0,131204,6.6,W*6F
$GPGGA,004628,3523.3632,N,13925.5863,E,1,04,,-22.9,M,,M,,*6D
$GPRMC,004629,A,3523.3619,N,13925.5850,E,5.9,219.1,131204,6.6,W*61
$GPGGA,004629,3523.3619,N,13925.5850,E,1,04,,-22.9,M,,M,,*65
$GPRMC,004630,A,3523.3619,N,13925.5850,E,0.0,219.1,131204,6.6,W*65
$GPGGA,004630,3523.3619,N,13925.5850,E,1,04,,-22.9,M,,M,,*6D
$GPRMC,004631,A,3523.3619,N,13925.5837,E,3.7,270.0,131204,6.6,W*6F
$GPGGA,004631,3523.3619,N,13925.5837,E,1,04,,-22.9,M,,M,,*6D
$GPRMC,004632,A,3523.3606,N,13925.5824,E,5.9,219.1,131204,6.6,W*66
$GPGGA,004632,3523.3606,N,13925.5824,E,1,04,,-23.4,M,,M,,*6E
$GPRMC,004633,A,3523.3606,N,13925.5824,E,0.0,219.1,131204,6.6,W*6B
$GPGGA,004633,3523.3606,N,13925.5824,E,1,04,,-23.4,M,,M,,*6F
$GPRMC,004634,A,3523.3606,N,13925.5811,E,3.7,270.0,131204,6.6,W*60
$GPGGA,004634,3523.3606,N,13925.5811,E,1,04,,-23.9,M,,M,,*63
$GPRMC,004635,A,3523.3593,N,13925.5798,E,5.9,219.1,131204,6.6,W*66
$GPGGA,004635,3523.3593,N,13925.5798,E,1,04,,-23.9,M,,M,,*63
$GPRMC,004636,A,3523.3593,N,13925.5798,E,0.0,219.1,131204,6.6,W*69
$GPGGA,004636,3523.3593,N,13925.5798,E,1,04,,-23.9,M,,M,,*60
$GPRMC,004637,A,3523.3593,N,13925.5786,E,3.7,270.0,131204,6.6,W*6D
$GPGGA,004637,3523.3593,N,13925.5786,E,1,04,,-23.9,M,,M,,*6E
$GPRMC,004638,A,3523.3581,N,13925.5786,E,4.6,179.9,131204,6.6,W*64
$GPGGA,004638,3523.3581,N,13925.5786,E,1,04,,-23.9,M,,M,,*62
$GPRMC,004639,A,3523.3581,N,13925.5773,E,3.7,270.0,131204,6.6,W*6A
$GPGGA,004639,3523.3581,N,13925.5773,E,1,04,,-24.9,M,,M,,*6E
$GPRMC,004640,A,3523.3568,N,13925.5773,E,4.6,179.9,131204,6.6,W*66
$GPGGA,004640,3523.3568,N,13925.5773,E,1,04,,-24.4,M,,M,,*6A
$GPRMC,004641,A,3523.3568,N,13925.5760,E,3.7,270.0,131204,6.6,W*60
$GPGGA,004641,3523.3568,N,13925.5760,E,1,04,,-24.9,M,,M,,*64
$GPRMC,004642,A,3523.3555,N,13925.5760,E,4.6,179.9,131204,6.6,W*68
$GPGGA,004642,3523.3555,N,13925.5760,E,1,04,,-24.9,M,,M,,*69
$GPRMC,004643,A,3523.3555,N,13925.5747,E,3.7,270.0,131204,6.6,W*69
$GPGGA,004643,3523.3555,N,13925.5747,E,1,04,,-24.9,M,,M,,*6D
$GPRMC,004644,A,3523.3555,N,13925.5734,E,3.7,270.0,131204,6.6,W*6A
$GPGGA,004644,3523.3555,N,13925.5734,E,1,04,,-24.9,M,,M,,*6E
$GPRMC,004645,A,3523.3542,N,13925.5734,E,4.6,180.0,131204,6.6,W*67
$GPGGA,004645,3523.3542,N,13925.5734,E,1,04,,-24.9,M,,M,,*69
$GPRMC,004646,A,3523.3542,N,13925.5721,E,3.7,270.0,131204,6.6,W*6A
$GPGGA,004646,3523.3542,N,13925.5721,E,1,04,,-25.3,M,,M,,*65
$GPRMC,004647,A,3523.3529,N,13925.5721,E,4.6,180.0,131204,6.6,W*6C
$GPGGA,004647,3523.3529,N,13925.5721,E,1,04,,-25.8,M,,M,,*62
$GPRMC,004648,A,3523.3529,N,13925.5708,E,3.7,270.0,131204,6.6,W*62
$GPGGA,004648,3523.3529,N,13925.5708,E,1,04,,-25.8,M,,M,,*66
$GPRMC,004649,A,3523.3516,N,13925.5708,E,4.6,179.9,131204,6.6,W*6A
$GPGGA,004649,3523.3516,N,13925.5708,E,1,04,,-25.8,M,,M,,*6B
$GPRMC,004650,A,3523.3516,N,13925.5695,E,3.7,270.0,131204,6.6,W*62
$GPGGA,004650,3523.3516,N,13925.5695,E,1,04,,-25.8,M,,M,,*66
$GPRMC,004651,A,3523.3516,N,13925.5683,E,3.7,270.0,131204,6.6,W*64
$GPGGA,004651,3523.3516,N,13925.5683,E,1,04,,-25.8,M,,M,,*60
$GPRMC,004652,A,3523.3503,N,13925.5683,E,4.6,180.0,131204,6.6,W*69
$GPGGA,004652,3523.3503,N,13925.5683,E,1,04,,-26.3,M,,M,,*6F
$GPRMC,004653,A,3523.3503,N,13925.5670,E,3.7,270.0,131204,6.6,W*6E
$GPGGA,004653,3523.3503,N,13925.5670,E,1,04,,-26.3,M,,M,,*62
$GPRMC,004654,A,3523.3503,N,13925.5657,E,3.7,270.0,131204,6.6,W*6C
$GPGGA,004654,3523.3503,N,13925.5657,E,1,04,,-26.3,M,,M,,*60
$GPRMC,004655,A,3523.3490,N,13925.5657,E,4.6,179.9,131204,6.6,W*63
$GPGGA,004655,3523.3490,N,13925.5657,E,1,04,,-26.8,M,,M,,*61
$GPRMC,004656,A,3523.3490,N,13925.5644,E,3.7,270.0,131204,6.6,W*67
$GPGGA,004656,3523.3490,N,13925.5644,E,1,04,,-26.3,M,,M,,*6B
$GPRMC,004657,A,3523.3478,N,13925.5644,E,4.6,179.9,131204,6.6,W*65
$GPGGA,004657,3523.3478,N,13925.5644,E,1,04,,-27.3,M,,M,,*6D
$GPRMC,004658,A,3523.3478,N,13925.5631,E,3.7,270.0,131204,6.6,W*6D
$GPGGA,004658,3523.3478,N,13925.5631,E,1,04,,-27.3,M,,M,,*60
$GPRMC,004659,A,3523.3465,N,13925.5631,E,4.6,179.9,131204,6.6,W*65
$GPGGA,004659,3523.3465,N,13925.5631,E,1,04,,-27.3,M,,M,,*6D
$GPRMC,004700,A,3523.3465,N,13925.5618,E,3.7,270.0,131204,6.6,W*66
$GPGGA,004700,3523.3465,N,13925.5618,E,1,04,,-27.3,M,,M,,*6B
$GPRMC,004701,A,3523.3465,N,13925.5618,E,0.0,270.0,131204,6.6,W*63
$GPGGA,004701,3523.3465,N,13925.5618,E,1,04,,-27.7,M,,M,,*6E
$GPRMC,004702,A,3523.3452,N,13925.5605,E,5.9,219.1,131204,6.6,W*6A
$GPGGA,004702,3523.3452,N,13925.5605,E,1,04,,-28.2,M,,M,,*6F
$GPRMC,004703,A,3523.3452,N,13925.5605,E,0.0,219.1,131204,6.6,W*67
$GPGGA,004703,3523.3452,N,13925.5605,E,1,04,,-28.7,M,,M,,*6B
$GPRMC,004704,A,3523.3439,N,13925.5592,E,5.9,219.1,131204,6.6,W*6C
$GPGGA,004704,3523.3439,N,13925.5592,E,1,04,,-28.7,M,,M,,*6C
$GPRMC,004705,A,3523.3439,N,13925.5592,E,0.0,219.1,131204,6.6,W*61
$GPGGA,004705,3523.3439,N,13925.5592,E,1,04,,-28.7,M,,M,,*6D
$GPRMC,004706,A,3523.3426,N,13925.5592,E,4.6,179.9,131204,6.6,W*63
$GPGGA,004706,3523.3426,N,13925.5592,E,1,04,,-28.7,M,,M,,*60
$GPRMC,004707,A,3523.3426,N,13925.5580,E,3.7,270.0,131204,6.6,W*64
$GPGGA,004707,3523.3426,N,13925.5580,E,1,04,,-29.7,M,,M,,*63
$GPRMC,004708,A,3523.3413,N,13925.5580,E,4.6,180.0,131204,6.6,W*67
$GPGGA,004708,3523.3413,N,13925.5580,E,1,04,,-30.1,M,,M,,*64
$GPRMC,004709,A,3523.3413,N,13925.5580,E,0.0,180.0,131204,6.6,W*64
$GPGGA,004709,3523.3413,N,13925.5580,E,1,04,,-30.1,M,,M,,*65
$GPRMC,004710,A,3523.3413,N,13925.5567,E,3.7,270.0,131204,6.6,W*6D
$GPGGA,004710,3523.3413,N,13925.5567,E,1,04,,-31.6,M,,M,,*62
$GPRMC,004711,A,3523.3400,N,13925.5554,E,5.9,219.1,131204,6.6,W*68
$GPGGA,004711,3523.3400,N,13925.5554,E,1,04,,-31.6,M,,M,,*61
$GPRMC,004712,A,3523.3400,N,13925.5554,E,0.0,219.1,131204,6.6,W*67
$GPGGA,004712,3523.3400,N,13925.5554,E,1,04,,-32.1,M,,M,,*66
$GPRMC,004713,A,3523.3400,N,13925.5541,E,3.7,270.0,131204,6.6,W*68
$GPGGA,004713,3523.3400,N,13925.5541,E,1,04,,-32.1,M,,M,,*63
$GPRMC,004714,A,3523.3400,N,13925.5541,E,0.0,270.0,131204,6.6,W*6B
$GPGGA,004714,3523.3400,N,13925.5541,E,1,04,,-32.1,M,,M,,*64
$GPRMC,004715,A,3523.3400,N,13925.5528,E,3.7,270.0,131204,6.6,W*61
$GPGGA,004715,3523.3400,N,13925.5528,E,1,04,,-32.5,M,,M,,*6E
$GPRMC,004716,A,3523.3400,N,13925.5528,E,0.0,270.0,131204,6.6,W*66
$GPGGA,004716,3523.3400,N,13925.5528,E,1,04,,-32.5,M,,M,,*6D
$GPRMC,004717,A,3523.3400,N,13925.5528,E,0.0,270.0,131204,6.6,W*67
$GPGGA,004717,3523.3400,N,13925.5528,E,1,04,,-32.5,M,,M,,*6C
$GPRMC,004718,A,3523.3400,N,13925.5515,E,3.7,270.0,131204,6.6,W*62
$GPGGA,004718,3523.3400,N,13925.5515,E,1,04,,-33.5,M,,M,,*6C
$GPRMC,004719,A,3523.3400,N,13925.5515,E,0.0,270.0,131204,6.6,W*67
$GPGGA,004719,3523.3400,N,13925.5515,E,1,04,,-33.5,M,,M,,*6D
$GPRMC,004720,A,3523.3400,N,13925.5515,E,0.0,270.0,131204,6.6,W*6D
$GPGGA,004720,3523.3400,N,13925.5515,E,1,04,,-33.5,M,,M,,*67
$GPRMC,004721,A,3523.3400,N,13925.5502,E,3.7,270.0,131204,6.6,W*6E
$GPGGA,004721,3523.3400,N,13925.5502,E,1,04,,-34.0,M,,M,,*62
$GPRMC,004722,A,3523.3400,N,13925.5489,E,3.7,270.0,131204,6.6,W*6F
$GPGGA,004722,3523.3400,N,13925.5489,E,1,04,,-34.5,M,,M,,*66
$GPRMC,004723,A,3523.3400,N,13925.5489,E,0.0,270.0,131204,6.6,W*6A
$GPGGA,004723,3523.3400,N,13925.5489,E,1,04,,-34.5,M,,M,,*67
$GPRMC,004724,A,3523.3400,N,13925.5477,E,3.7,270.0,131204,6.6,W*68
$GPGGA,004724,3523.3400,N,13925.5477,E,1,04,,-34.5,M,,M,,*61
$GPRMC,004725,A,3523.3400,N,13925.5477,E,0.0,270.0,131204,6.6,W*6D
$GPGGA,004725,3523.3400,N,13925.5477,E,1,04,,-35.0,M,,M,,*64
$GPRMC,004726,A,3523.3413,N,13925.5464,E,5.9,320.8,131204,6.6,W*6E
$GPGGA,004726,3523.3413,N,13925.5464,E,1,04,,-35.0,M,,M,,*67
$GPRMC,004727,A,3523.3413,N,13925.5464,E,0.0,320.8,131204,6.6,W*63
$GPGGA,004727,3523.3413,N,13925.5464,E,1,04,,-35.4,M,,M,,*62
$GPRMC,004728,A,3523.3413,N,13925.5464,E,0.0,320.8,131204,6.6,W*6C
$GPGGA,004728,3523.3413,N,13925.5464,E,1,04,,-35.4,M,,M,,*6D
$GPRMC,004729,A,3523.3413,N,13925.5464,E,0.0,320.8,131204,6.6,W*6D
$GPGGA,004729,3523.3413,N,13925.5464,E,1,04,,-35.9,M,,M,,*61
$GPRMC,004730,A,3523.3413,N,13925.5464,E,0.0,320.8,131204,6.6,W*65
$GPGGA,004730,3523.3413,N,13925.5464,E,1,04,,-35.9,M,,M,,*69
$GPRMC,004731,A,3523.3413,N,13925.5464,E,0.0,320.8,131204,6.6,W*64
$GPGGA,004731,3523.3413,N,13925.5464,E,1,04,,-36.4,M,,M,,*66
$GPRMC,004732,A,3523.3413,N,13925.5464,E,0.0,320.8,131204,6.6,W*67
$GPGGA,004732,3523.3413,N,13925.5464,E,1,04,,-36.4,M,,M,,*65
$GPRMC,004733,A,3523.3413,N,13925.5464,E,0.0,320.8,131204,6.6,W*66
$GPGGA,004733,3523.3413,N,13925.5464,E,1,04,,-36.9,M,,M,,*69
$GPRMC,004734,A,3523.3413,N,13925.5464,E,0.0,320.8,131204,6.6,W*61
$GPGGA,004734,3523.3413,N,13925.5464,E,1,04,,-37.4,M,,M,,*62
