$PGRMM,WGS 84*06
$GPRMC,,V,,,,,,,,*1D
$GPGGA,,,,,,,0,,,,,,*4A
$GPRMC,231747,A,3523.3645,N,13925.6507,E,0.0,0.0,121204,6.6,W*6F
$GPGGA,231747,3523.3645,N,13925.6507,E,1,04,,128.0,M,,M,,*72
$GPRMC,231748,A,3523.3619,N,13925.6519,E,9.9,157.8,121204,6.6,W*6D
$GPGGA,231748,3523.3619,N,13925.6519,E,1,04,,127.0,M,,M,,*74
$GPRMC,231749,A,3523.3645,N,13925.6532,E,9.9,22.1,121204,6.6,W*56
$GPGGA,231749,3523.3645,N,13925.6532,E,1,04,,128.5,M,,M,,*7F
$GPRMC,231750,A,3523.3632,N,13925.6545,E,5.9,140.8,121204,6.6,W*6E
$GPGGA,231750,3523.3632,N,13925.6545,E,1,04,,128.0,M,,M,,*72
$GPRMC,231751,A,3523.3619,N,13925.6558,E,5.9,140.8,121204,6.6,W*6A
$GPGGA,231751,3523.3619,N,13925.6558,E,1,04,,128.0,M,,M,,*76
$GPRMC,231752,A,3523.3606,N,13925.6558,E,4.6,180.0,121204,6.6,W*6D
$GPGGA,231752,3523.3606,N,13925.6558,E,1,04,,128.5,M,,M,,*7E
$GPRMC,231753,A,3523.3606,N,13925.6571,E,3.7,89.9,121204,6.6,W*50
$GPGGA,231753,3523.3606,N,13925.6571,E,1,04,,128.5,M,,M,,*74
$GPRMC,231754,A,3523.3632,N,13925.6584,E,9.9,22.1,121204,6.6,W*57
$GPGGA,231754,3523.3632,N,13925.6584,E,1,04,,129.0,M,,M,,*7A
$GPRMC,231755,A,3523.3645,N,13925.6584,E,4.6,0.0,121204,6.6,W*65
$GPGGA,231755,3523.3645,N,13925.6584,E,1,04,,128.5,M,,M,,*7F
$GPRMC,231756,A,3523.3658,N,13925.6597,E,5.9,39.1,121204,6.6,W*5D
$GPGGA,231756,3523.3658,N,13925.6597,E,1,04,,129.0,M,,M,,*76
$GPRMC,231757,A,3523.3671,N,13925.6597,E,4.6,0.0,121204,6.6,W*62
$GPGGA,231757,3523.3671,N,13925.6597,E,1,04,,129.0,M,,M,,*7C
$GPRMC,231758,A,3523.3671,N,13925.6610,E,3.7,89.9,121204,6.6,W*5F
$GPGGA,231758,3523.3671,N,13925.6610,E,1,04,,129.0,M,,M,,*7F
$GPRMC,231759,A,3523.3684,N,13925.6622,E,5.9,39.1,121204,6.6,W*5E
$GPGGA,231759,3523.3684,N,13925.6622,E,1,04,,129.0,M,,M,,*75
$GPRMC,231800,A,3523.3684,N,13925.6622,E,0.0,39.1,121204,6.6,W*51
$GPGGA,231800,3523.3684,N,13925.6622,E,1,04,,129.0,M,,M,,*76
$GPRMC,231801,A,3523.3684,N,13925.6635,E,3.7,89.9,121204,6.6,W*51
$GPGGA,231801,3523.3684,N,13925.6635,E,1,04,,127.5,M,,M,,*7A
$GPRMC,231802,A,3523.3684,N,13925.6635,E,0.0,89.9,121204,6.6,W*56
$GPGGA,231802,3523.3684,N,13925.6635,E,1,04,,125.6,M,,M,,*78
$GPRMC,231803,A,3523.3684,N,13925.6648,E,3.7,89.9,121204,6.6,W*59
$GPGGA,231803,3523.3684,N,13925.6648,E,1,04,,127.0,M,,M,,*77
$GPRMC,231804,A,3523.3684,N,13925.6661,E,3.7,89.9,121204,6.6,W*55
$GPGGA,231804,3523.3684,N,13925.6661,E,1,04,,126.1,M,,M,,*7B
$GPRMC,231805,A,3523.3684,N,13925.6661,E,0.0,89.9,121204,6.6,W*50
$GPGGA,231805,3523.3684,N,13925.6661,E,1,04,,125.1,M,,M,,*79
$GPRMC,231806,A,3523.3684,N,13925.6674,E,3.7,89.9,121204,6.6,W*53
$GPGGA,231806,3523.3684,N,13925.6674,E,1,04,,128.0,M,,M,,*72
$GPRMC,231807,A,3523.3684,N,13925.6674,E,0.0,89.9,121204,6.6,W*56
$GPGGA,231807,3523.3684,N,13925.6674,E,1,04,,128.5,M,,M,,*76
$GPRMC,231808,A,3523.3684,N,13925.6687,E,3.7,89.9,121204,6.6,W*51
$GPGGA,231808,3523.3684,N,13925.6687,E,1,04,,129.0,M,,M,,*71
$GPRMC,231809,A,3523.3684,N,13925.6700,E,3.7,89.9,121204,6.6,W*5E
$GPGGA,231809,3523.3684,N,13925.6700,E,1,04,,126.6,M,,M,,*77
$GPRMC,231810,A,3523.3671,N,13925.6700,E,4.6,179.9,121204,6.6,W*64
$GPGGA,231810,3523.3671,N,13925.6700,E,1,04,,125.1,M,,M,,*71
$GPRMC,231811,A,3523.3671,N,13925.6713,E,3.7,89.9,121204,6.6,W*5F
$GPGGA,231811,3523.3671,N,13925.6713,E,1,04,,123.2,M,,M,,*77
$GPRMC,231812,A,3523.3671,N,13925.6713,E,0.0,89.9,121204,6.6,W*58
$GPGGA,231812,3523.3671,N,13925.6713,E,1,04,,120.8,M,,M,,*7D
$GPRMC,231813,A,3523.3671,N,13925.6725,E,3.7,89.9,121204,6.6,W*58
$GPGGA,231813,3523.3671,N,13925.6725,E,1,04,,120.3,M,,M,,*72
$GPRMC,231814,A,3523.3671,N,13925.6738,E,3.7,89.9,121204,6.6,W*53
$GPGGA,231814,3523.3671,N,13925.6738,E,1,04,,118.4,M,,M,,*75
$GPRMC,231815,A,3523.3671,N,13925.6738,E,0.0,89.9,121204,6.6,W*56
$GPGGA,231815,3523.3671,N,13925.6738,E,1,04,,116.0,M,,M,,*7E
$GPRMC,231816,A,3523.3671,N,13925.6751,E,3.7,89.9,121204,6.6,W*5E
$GPGGA,231816,3523.3671,N,13925.6751,E,1,04,,115.0,M,,M,,*71
$GPRMC,231817,A,3523.3658,N,13925.6751,E,4.6,179.9,121204,6.6,W*6C
$GPGGA,231817,3523.3658,N,13925.6751,E,1,04,,113.1,M,,M,,*7C
$GPRMC,231818,A,3523.3658,N,13925.6764,E,3.7,89.9,121204,6.6,W*5D
$GPGGA,231818,3523.3658,N,13925.6764,E,1,04,,111.7,M,,M,,*71
$GPRMC,231819,A,3523.3658,N,13925.6764,E,0.0,89.9,121204,6.6,W*58
$GPGGA,231819,3523.3658,N,13925.6764,E,1,04,,110.2,M,,M,,*74
$GPRMC,231820,A,3523.3658,N,13925.6777,E,3.7,89.9,121204,6.6,W*54
$GPGGA,231820,3523.3658,N,13925.6777,E,1,04,,108.8,M,,M,,*7F
$GPRMC,231821,A,3523.3658,N,13925.6777,E,0.0,89.9,121204,6.6,W*51
$GPGGA,231821,3523.3658,N,13925.6777,E,1,04,,107.3,M,,M,,*7A
$GPRMC,231822,A,3523.3658,N,13925.6790,E,3.7,89.9,121204,6.6,W*5F
$GPGGA,231822,3523.3658,N,13925.6790,E,1,04,,105.9,M,,M,,*78
$GPRMC,231823,A,3523.3658,N,13925.6790,E,0.0,89.9,121204,6.6,W*5A
$GPGGA,231823,3523.3658,N,13925.6790,E,1,04,,104.0,M,,M,,*71
$GPRMC,231824,A,3523.3658,N,13925.6803,E,3.7,89.9,121204,6.6,W*5C
$GPGGA,231824,3523.3658,N,13925.6803,E,1,04,,103.5,M,,M,,*71
$GPRMC,231825,A,3523.3645,N,13925.6803,E,4.6,180.0,121204,6.6,W*66
$GPGGA,231825,3523.3645,N,13925.6803,E,1,04,,95.8,M,,M,,*4F
$GPRMC,231826,A,3523.3645,N,13925.6816,E,3.7,89.9,121204,6.6,W*56
$GPGGA,231826,3523.3645,N,13925.6816,E,1,04,,100.1,M,,M,,*7C
$GPRMC,231827,A,3523.3645,N,13925.6816,E,0.0,89.9,121204,6.6,W*53
$GPGGA,231827,3523.3645,N,13925.6816,E,1,04,,100.1,M,,M,,*7D
$GPRMC,231828,A,3523.3645,N,13925.6828,E,3.7,89.9,121204,6.6,W*55
$GPGGA,231828,3523.3645,N,13925.6828,E,1,04,,98.7,M,,M,,*49
$GPRMC,231829,A,3523.3645,N,13925.6841,E,3.7,89.9,121204,6.6,W*5B
$GPGGA,231829,3523.3645,N,13925.6841,E,1,04,,97.7,M,,M,,*48
$GPRMC,231830,A,3523.3645,N,13925.6841,E,0.0,89.9,121204,6.6,W*57
$GPGGA,231830,3523.3645,N,13925.6841,E,1,04,,96.3,M,,M,,*45
$GPRMC,231831,A,3523.3645,N,13925.6854,E,3.7,89.9,121204,6.6,W*56
$GPGGA,231831,3523.3645,N,13925.6854,E,1,04,,95.3,M,,M,,*43
$GPRMC,231832,A,3523.3645,N,13925.6854,E,0.0,89.9,121204,6.6,W*51
$GPGGA,231832,3523.3645,N,13925.6854,E,1,04,,93.9,M,,M,,*4C
$GPRMC,231833,A,3523.3632,N,13925.6867,E,5.9,140.8,121204,6.6,W*69
$GPGGA,231833,3523.3632,N,13925.6867,E,1,04,,92.4,M,,M,,*41
$GPRMC,231834,A,3523.3632,N,13925.6867,E,0.0,140.8,121204,6.6,W*62
$GPGGA,231834,3523.3632,N,13925.6867,E,1,04,,91.5,M,,M,,*44
$GPRMC,231835,A,3523.3632,N,13925.6880,E,3.7,89.9,121204,6.6,W*5B
$GPGGA,231835,3523.3632,N,13925.6880,E,1,04,,90.5,M,,M,,*4D
$GPRMC,231836,A,3523.3632,N,13925.6880,E,0.0,89.9,121204,6.6,W*5C
$GPGGA,231836,3523.3632,N,13925.6880,E,1,04,,89.5,M,,M,,*46
$GPRMC,231837,A,3523.3632,N,13925.6893,E,3.7,89.9,121204,6.6,W*5B
$GPGGA,231837,3523.3632,N,13925.6893,E,1,04,,88.1,M,,M,,*40
$GPRMC,231838,A,3523.3632,N,13925.6906,E,3.7,89.9,121204,6.6,W*59
$GPGGA,231838,3523.3632,N,13925.6906,E,1,04,,87.6,M,,M,,*4A
$GPRMC,231839,A,3523.3632,N,13925.6906,E,0.0,89.9,121204,6.6,W*5C
$GPGGA,231839,3523.3632,N,13925.6906,E,1,04,,86.7,M,,M,,*4B
$GPRMC,231840,A,3523.3632,N,13925.6919,E,3.7,89.9,121204,6.6,W*58
$GPGGA,231840,3523.3632,N,13925.6919,E,1,04,,85.7,M,,M,,*48
$GPRMC,231841,A,3523.3632,N,13925.6919,E,0.0,89.9,121204,6.6,W*5D
$GPGGA,231841,3523.3632,N,13925.6919,E,1,04,,85.2,M,,M,,*4C
$GPRMC,231842,A,3523.3632,N,13925.6931,E,3.7,89.9,121204,6.6,W*50
$GPGGA,231842,3523.3632,N,13925.6931,E,1,04,,84.7,M,,M,,*41
$GPRMC,231843,A,3523.3632,N,13925.6931,E,0.0,89.9,121204,6.6,W*55
$GPGGA,231843,3523.3632,N,13925.6931,E,1,04,,84.3,M,,M,,*44
$GPRMC,231844,A,3523.3632,N,13925.6944,E,3.7,89.9,121204,6.6,W*54
$GPGGA,231844,3523.3632,N,13925.6944,E,1,04,,83.8,M,,M,,*4D
$GPRMC,231845,A,3523.3632,N,13925.6957,E,3.7,89.9,121204,6.6,W*57
$GPGGA,231845,3523.3632,N,13925.6957,E,1,04,,83.3,M,,M,,*45
$GPRMC,231846,A,3523.3632,N,13925.6957,E,0.0,89.9,121204,6.6,W*50
$GPGGA,231846,3523.3632,N,13925.6957,E,1,04,,84.3,M,,M,,*41
$GPRMC,231847,A,3523.3632,N,13925.6970,E,3.7,89.9,121204,6.6,W*50
$GPGGA,231847,3523.3632,N,13925.6970,E,1,04,,83.8,M,,M,,*49
$GPRMC,231848,A,3523.3645,N,13925.6983,E,5.9,39.1,121204,6.6,W*58
$GPGGA,231848,3523.3645,N,13925.6983,E,1,04,,84.7,M,,M,,*42
$GPRMC,231849,A,3523.3645,N,13925.6996,E,3.7,89.9,121204,6.6,W*56
$GPGGA,231849,3523.3645,N,13925.6996,E,1,04,,85.2,M,,M,,*43
$GPRMC,231850,A,3523.3645,N,13925.7009,E,3.7,89.9,121204,6.6,W*50
$GPGGA,231850,3523.3645,N,13925.7009,E,1,04,,80.4,M,,M,,*46
$GPRMC,231851,A,3523.3645,N,13925.7009,E,0.0,89.9,121204,6.6,W*55
$GPGGA,231851,3523.3645,N,13925.7009,E,1,04,,79.9,M,,M,,*4C
$GPRMC,231852,A,3523.3645,N,13925.7022,E,3.7,89.9,121204,6.6,W*5B
$GPGGA,231852,3523.3645,N,13925.7022,E,1,04,,80.9,M,,M,,*40
$GPRMC,231853,A,3523.3645,N,13925.7034,E,3.7,89.9,121204,6.6,W*5D
$GPGGA,231853,3523.3645,N,13925.7034,E,1,04,,81.4,M,,M,,*4A
$GPRMC,231854,A,3523.3645,N,13925.7047,E,3.7,89.9,121204,6.6,W*5E
$GPGGA,231854,3523.3645,N,13925.7047,E,1,04,,81.4,M,,M,,*49
$GPRMC,231855,A,3523.3645,N,13925.7047,E,0.0,89.9,121204,6.6,W*5B
$GPGGA,231855,3523.3645,N,13925.7047,E,1,04,,81.4,M,,M,,*48
$GPRMC,231856,A,3523.3645,N,13925.7060,E,3.7,89.9,121204,6.6,W*59
$GPGGA,231856,3523.3645,N,13925.7060,E,1,04,,81.8,M,,M,,*42
$GPRMC,231857,A,3523.3645,N,13925.7060,E,0.0,89.9,121204,6.6,W*5C
$GPGGA,231857,3523.3645,N,13925.7060,E,1,04,,81.8,M,,M,,*43
$GPRMC,231858,A,3523.3645,N,13925.7073,E,3.7,89.9,121204,6.6,W*55
$GPGGA,231858,3523.3645,N,13925.7073,E,1,04,,80.4,M,,M,,*43
$GPRMC,231859,A,3523.3658,N,13925.7086,E,5.9,39.1,121204,6.6,W*59
$GPGGA,231859,3523.3658,N,13925.7086,E,1,04,,83.8,M,,M,,*4B
$GPRMC,231900,A,3523.3658,N,13925.7099,E,3.7,89.9,121204,6.6,W*51
$GPGGA,231900,3523.3658,N,13925.7099,E,1,04,,85.2,M,,M,,*44
$GPRMC,231901,A,3523.3658,N,13925.7099,E,0.0,89.9,121204,6.6,W*54
$GPGGA,231901,3523.3658,N,13925.7099,E,1,04,,85.7,M,,M,,*40
$GPRMC,231902,A,3523.3658,N,13925.7112,E,3.7,89.9,121204,6.6,W*51
$GPGGA,231902,3523.3658,N,13925.7112,E,1,04,,85.2,M,,M,,*44
$GPRMC,231903,A,3523.3658,N,13925.7125,E,3.7,89.9,121204,6.6,W*54
$GPGGA,231903,3523.3658,N,13925.7125,E,1,04,,85.2,M,,M,,*41
$GPRMC,231904,A,3523.3658,N,13925.7125,E,0.0,89.9,121204,6.6,W*57
$GPGGA,231904,3523.3658,N,13925.7125,E,1,04,,85.7,M,,M,,*43
$GPRMC,231905,A,3523.3658,N,13925.7137,E,3.7,89.9,121204,6.6,W*51
$GPGGA,231905,3523.3658,N,13925.7137,E,1,04,,86.2,M,,M,,*47
$GPRMC,231906,A,3523.3658,N,13925.7150,E,3.7,89.9,121204,6.6,W*53
$GPGGA,231906,3523.3658,N,13925.7150,E,1,04,,86.7,M,,M,,*40
$GPRMC,231907,A,3523.3671,N,13925.7163,E,5.9,39.1,121204,6.6,W*52
$GPGGA,231907,3523.3671,N,13925.7163,E,1,04,,86.2,M,,M,,*4F
$GPRMC,231908,A,3523.3671,N,13925.7163,E,0.0,39.1,121204,6.6,W*51
$GPGGA,231908,3523.3671,N,13925.7163,E,1,04,,86.7,M,,M,,*45
$GPRMC,231909,A,3523.3671,N,13925.7176,E,3.7,89.9,121204,6.6,W*53
$GPGGA,231909,3523.3671,N,13925.7176,E,1,04,,86.7,M,,M,,*40
$GPRMC,231910,A,3523.3671,N,13925.7176,E,0.0,89.9,121204,6.6,W*5F
$GPGGA,231910,3523.3671,N,13925.7176,E,1,04,,87.6,M,,M,,*48
$GPRMC,231911,A,3523.3671,N,13925.7189,E,3.7,89.9,121204,6.6,W*5A
$GPGGA,231911,3523.3671,N,13925.7189,E,1,04,,87.6,M,,M,,*49
$GPRMC,231912,A,3523.3684,N,13925.7202,E,5.9,39.1,121204,6.6,W*58
$GPGGA,231912,3523.3684,N,13925.7202,E,1,04,,87.6,M,,M,,*40
$GPRMC,231913,A,3523.3684,N,13925.7202,E,0.0,39.1,121204,6.6,W*55
$GPGGA,231913,3523.3684,N,13925.7202,E,1,04,,88.1,M,,M,,*49
$GPRMC,231914,A,3523.3684,N,13925.7202,E,0.0,39.1,121204,6.6,W*52
$GPGGA,231914,3523.3684,N,13925.7202,E,1,04,,88.6,M,,M,,*49
$GPRMC,231915,A,3523.3696,N,13925.7215,E,5.9,39.1,121204,6.6,W*5A
$GPGGA,231915,3523.3696,N,13925.7215,E,1,04,,87.6,M,,M,,*42
$GPRMC,231916,A,3523.3696,N,13925.7215,E,0.0,39.1,121204,6.6,W*55
$GPGGA,231916,3523.3696,N,13925.7215,E,1,04,,87.6,M,,M,,*41
$GPRMC,231917,A,3523.3696,N,13925.7215,E,0.0,39.1,121204,6.6,W*54
$GPGGA,231917,3523.3696,N,13925.7215,E,1,04,,88.1,M,,M,,*48
$GPRMC,231918,A,3523.3696,N,13925.7215,E,0.0,39.1,121204,6.6,W*5B
$GPGGA,231918,3523.3696,N,13925.7215,E,1,04,,88.1,M,,M,,*47
$GPRMC,231919,A,3523.3696,N,13925.7215,E,0.0,39.1,121204,6.6,W*5A
$GPGGA,231919,3523.3696,N,13925.7215,E,1,04,,87.6,M,,M,,*4E
$GPRMC,231920,A,3523.3696,N,13925.7215,E,0.0,39.1,121204,6.6,W*50
$GPGGA,231920,3523.3696,N,13925.7215,E,1,04,,88.1,M,,M,,*4C
$GPRMC,231921,A,3523.3696,N,13925.7202,E,3.7,270.0,121204,6.6,W*6D
$GPGGA,231921,3523.3696,N,13925.7202,E,1,04,,88.6,M,,M,,*4C
$GPRMC,231922,A,3523.3696,N,13925.7202,E,0.0,270.0,121204,6.6,W*6A
$GPGGA,231922,3523.3696,N,13925.7202,E,1,04,,88.6,M,,M,,*4F
$GPRMC,231923,A,3523.3696,N,13925.7202,E,0.0,270.0,121204,6.6,W*6B
$GPGGA,231923,3523.3696,N,13925.7202,E,1,04,,89.1,M,,M,,*48
$GPRMC,231924,A,3523.3696,N,13925.7202,E,0.0,270.0,121204,6.6,W*6C
$GPGGA,231924,3523.3696,N,13925.7202,E,1,04,,89.1,M,,M,,*4F
$GPRMC,231925,A,3523.3696,N,13925.7202,E,0.0,270.0,121204,6.6,W*6D
$GPGGA,231925,3523.3696,N,13925.7202,E,1,04,,89.1,M,,M,,*4E
$GPRMC,231926,A,3523.3696,N,13925.7202,E,0.0,270.0,121204,6.6,W*6E
$GPGGA,231926,3523.3696,N,13925.7202,E,1,04,,89.5,M,,M,,*49
$GPRMC,231927,A,3523.3696,N,13925.7202,E,0.0,270.0,121204,6.6,W*6F
$GPGGA,231927,3523.3696,N,13925.7202,E,1,04,,89.5,M,,M,,*48
$GPRMC,231928,A,3523.3696,N,13925.7202,E,0.0,270.0,121204,6.6,W*60
$GPGGA,231928,3523.3696,N,13925.7202,E,1,04,,89.5,M,,M,,*47
$GPRMC,231929,A,3523.3696,N,13925.7202,E,0.0,270.0,121204,6.6,W*61
$GPGGA,231929,3523.3696,N,13925.7202,E,1,04,,89.5,M,,M,,*46
$GPRMC,231930,A,3523.3684,N,13925.7202,E,4.6,179.9,121204,6.6,W*6B
$GPGGA,231930,3523.3684,N,13925.7202,E,1,04,,90.0,M,,M,,*40
$GPRMC,231931,A,3523.3684,N,13925.7202,E,0.0,179.9,121204,6.6,W*68
$GPGGA,231931,3523.3684,N,13925.7202,E,1,04,,90.0,M,,M,,*41
$GPRMC,231932,A,3523.3684,N,13925.7202,E,0.0,179.9,121204,6.6,W*6B
$GPGGA,231932,3523.3684,N,13925.7202,E,1,04,,90.0,M,,M,,*42
$GPRMC,231933,A,3523.3684,N,13925.7202,E,0.0,179.9,121204,6.6,W*6A
$GPGGA,231933,3523.3684,N,13925.7202,E,1,04,,90.0,M,,M,,*43
$GPRMC,231934,A,3523.3684,N,13925.7202,E,0.0,179.9,121204,6.6,W*6D
$GPGGA,231934,3523.3684,N,13925.7202,E,1,04,,90.5,M,,M,,*41
$GPRMC,231935,A,3523.3684,N,13925.7202,E,0.0,179.9,121204,6.6,W*6C
$GPGGA,231935,3523.3684,N,13925.7202,E,1,04,,90.0,M,,M,,*45
$GPRMC,231936,A,3523.3684,N,13925.7202,E,0.0,179.9,121204,6.6,W*6F
$GPGGA,231936,3523.3684,N,13925.7202,E,1,04,,90.5,M,,M,,*43
$GPRMC,231937,A,3523.3684,N,13925.7189,E,3.7,270.0,121204,6.6,W*69
$GPGGA,231937,3523.3684,N,13925.7189,E,1,04,,90.5,M,,M,,*42
$GPRMC,231938,A,3523.3671,N,13925.7189,E,4.6,179.9,121204,6.6,W*69
$GPGGA,231938,3523.3671,N,13925.7189,E,1,04,,91.0,M,,M,,*43
$GPRMC,231939,A,3523.3671,N,13925.7189,E,0.0,179.9,121204,6.6,W*6A
$GPGGA,231939,3523.3671,N,13925.7189,E,1,04,,91.0,M,,M,,*42
$GPRMC,231940,A,3523.3671,N,13925.7189,E,0.0,179.9,121204,6.6,W*64
$GPGGA,231940,3523.3671,N,13925.7189,E,1,04,,91.5,M,,M,,*49
$GPRMC,231941,A,3523.3671,N,13925.7189,E,0.0,179.9,121204,6.6,W*65
$GPGGA,231941,3523.3671,N,13925.7189,E,1,04,,91.5,M,,M,,*48
$GPRMC,231942,A,3523.3671,N,13925.7189,E,0.0,179.9,121204,6.6,W*66
$GPGGA,231942,3523.3671,N,13925.7189,E,1,04,,91.0,M,,M,,*4E
$GPRMC,231943,A,3523.3671,N,13925.7176,E,3.7,270.0,121204,6.6,W*60
$GPGGA,231943,3523.3671,N,13925.7176,E,1,04,,91.9,M,,M,,*46
$GPRMC,231944,A,3523.3671,N,13925.7176,E,0.0,270.0,121204,6.6,W*63
$GPGGA,231944,3523.3671,N,13925.7176,E,1,04,,91.5,M,,M,,*4D
$GPRMC,231945,A,3523.3671,N,13925.7176,E,0.0,270.0,121204,6.6,W*62
$GPGGA,231945,3523.3671,N,13925.7176,E,1,04,,91.5,M,,M,,*4C
$GPRMC,231946,A,3523.3671,N,13925.7176,E,0.0,270.0,121204,6.6,W*61
$GPGGA,231946,3523.3671,N,13925.7176,E,1,04,,91.5,M,,M,,*4F
$GPRMC,231947,A,3523.3658,N,13925.7176,E,4.6,179.9,121204,6.6,W*6A
$GPGGA,231947,3523.3658,N,13925.7176,E,1,04,,92.4,M,,M,,*47
$GPRMC,231948,A,3523.3671,N,13925.7176,E,4.6,0.0,121204,6.6,W*68
$GPGGA,231948,3523.3671,N,13925.7176,E,1,04,,92.4,M,,M,,*43
$GPRMC,231949,A,3523.3671,N,13925.7163,E,3.7,270.0,121204,6.6,W*6E
$GPGGA,231949,3523.3671,N,13925.7163,E,1,04,,92.4,M,,M,,*46
$GPRMC,231950,A,3523.3671,N,13925.7163,E,0.0,270.0,121204,6.6,W*62
$GPGGA,231950,3523.3671,N,13925.7163,E,1,04,,92.4,M,,M,,*4E
$GPRMC,231951,A,3523.3671,N,13925.7163,E,0.0,270.0,121204,6.6,W*63
$GPGGA,231951,3523.3671,N,13925.7163,E,1,04,,92.9,M,,M,,*42
$GPRMC,231952,A,3523.3671,N,13925.7163,E,0.0,270.0,121204,6.6,W*60
$GPGGA,231952,3523.3671,N,13925.7163,E,1,04,,92.9,M,,M,,*41
$GPRMC,231953,A,3523.3671,N,13925.7163,E,0.0,270.0,121204,6.6,W*61
$GPGGA,231953,3523.3671,N,13925.7163,E,1,04,,92.9,M,,M,,*40
$GPRMC,231954,A,3523.3671,N,13925.7163,E,0.0,270.0,121204,6.6,W*66
$GPGGA,231954,3523.3671,N,13925.7163,E,1,04,,92.4,M,,M,,*4A
$GPRMC,231955,A,3523.3671,N,13925.7163,E,0.0,270.0,121204,6.6,W*67
$GPGGA,231955,3523.3671,N,13925.7163,E,1,04,,92.4,M,,M,,*4B
$GPRMC,231956,A,3523.3671,N,13925.7163,E,0.0,270.0,121204,6.6,W*64
$GPGGA,231956,3523.3671,N,13925.7163,E,1,04,,92.9,M,,M,,*45
$GPRMC,231957,A,3523.3671,N,13925.7163,E,0.0,270.0,121204,6.6,W*65
$GPGGA,231957,3523.3671,N,13925.7163,E,1,04,,92.9,M,,M,,*44
$GPRMC,231958,A,3523.3671,N,13925.7163,E,0.0,270.0,121204,6.6,W*6A
$GPGGA,231958,3523.3671,N,13925.7163,E,1,04,,92.9,M,,M,,*4B
$GPRMC,231959,A,3523.3671,N,13925.7163,E,0.0,270.0,121204,6.6,W*6B
$GPGGA,231959,3523.3671,N,13925.7163,E,1,04,,93.4,M,,M,,*46
$GPRMC,232000,A,3523.3671,N,13925.7150,E,3.7,270.0,121204,6.6,W*69
$GPGGA,232000,3523.3671,N,13925.7150,E,1,04,,93.4,M,,M,,*40
$GPRMC,232001,A,3523.3671,N,13925.7150,E,0.0,270.0,121204,6.6,W*6C
$GPGGA,232001,3523.3671,N,13925.7150,E,1,04,,93.9,M,,M,,*4C
$GPRMC,232002,A,3523.3658,N,13925.7150,E,4.6,179.9,121204,6.6,W*65
$GPGGA,232002,3523.3658,N,13925.7150,E,1,04,,93.4,M,,M,,*49
$GPRMC,232003,A,3523.3658,N,13925.7150,E,0.0,179.9,121204,6.6,W*66
$GPGGA,232003,3523.3658,N,13925.7150,E,1,04,,94.3,M,,M,,*48
$GPRMC,232004,A,3523.3658,N,13925.7150,E,0.0,179.9,121204,6.6,W*61
$GPGGA,232004,3523.3658,N,13925.7150,E,1,04,,94.3,M,,M,,*4F
$GPRMC,232005,A,3523.3658,N,13925.7150,E,0.0,179.9,121204,6.6,W*60
$GPGGA,232005,3523.3658,N,13925.7150,E,1,04,,94.3,M,,M,,*4E
$GPRMC,232006,A,3523.3658,N,13925.7150,E,0.0,179.9,121204,6.6,W*63
$GPGGA,232006,3523.3658,N,13925.7150,E,1,04,,94.3,M,,M,,*4D
$GPRMC,232007,A,3523.3658,N,13925.7137,E,3.7,270.0,121204,6.6,W*64
$GPGGA,232007,3523.3658,N,13925.7137,E,1,04,,94.3,M,,M,,*4D
$GPRMC,232008,A,3523.3658,N,13925.7137,E,0.0,270.0,121204,6.6,W*6F
$GPGGA,232008,3523.3658,N,13925.7137,E,1,04,,94.8,M,,M,,*49
$GPRMC,232009,A,3523.3658,N,13925.7137,E,0.0,270.0,121204,6.6,W*6E
$GPGGA,232009,3523.3658,N,13925.7137,E,1,04,,94.8,M,,M,,*48
$GPRMC,232010,A,3523.3658,N,13925.7137,E,0.0,270.0,121204,6.6,W*66
$GPGGA,232010,3523.3658,N,13925.7137,E,1,04,,95.8,M,,M,,*41
$GPRMC,232011,A,3523.3658,N,13925.7137,E,0.0,270.0,121204,6.6,W*67
$GPGGA,232011,3523.3658,N,13925.7137,E,1,04,,95.3,M,,M,,*4B
$GPRMC,232012,A,3523.3658,N,13925.7137,E,0.0,270.0,121204,6.6,W*64
$GPGGA,232012,3523.3658,N,13925.7137,E,1,04,,95.3,M,,M,,*48
$GPRMC,232013,A,3523.3658,N,13925.7125,E,3.7,270.0,121204,6.6,W*62
$GPGGA,232013,3523.3658,N,13925.7125,E,1,04,,95.3,M,,M,,*4A
$GPRMC,232014,A,3523.3645,N,13925.7125,E,4.6,180.0,121204,6.6,W*63
$GPGGA,232014,3523.3645,N,13925.7125,E,1,04,,95.3,M,,M,,*41
$GPRMC,232015,A,3523.3645,N,13925.7125,E,0.0,180.0,121204,6.6,W*60
$GPGGA,232015,3523.3645,N,13925.7125,E,1,04,,95.8,M,,M,,*4B
$GPRMC,232016,A,3523.3645,N,13925.7125,E,0.0,180.0,121204,6.6,W*63
$GPGGA,232016,3523.3645,N,13925.7125,E,1,04,,95.8,M,,M,,*48
$GPRMC,232017,A,3523.3645,N,13925.7125,E,0.0,180.0,121204,6.6,W*62
$GPGGA,232017,3523.3645,N,13925.7125,E,1,04,,95.8,M,,M,,*49
$GPRMC,232018,A,3523.3645,N,13925.7125,E,0.0,180.0,121204,6.6,W*6D
$GPGGA,232018,3523.3645,N,13925.7125,E,1,04,,96.3,M,,M,,*4E
$GPRMC,232019,A,3523.3645,N,13925.7112,E,3.7,270.0,121204,6.6,W*60
$GPGGA,232019,3523.3645,N,13925.7112,E,1,04,,96.7,M,,M,,*4F
$GPRMC,232020,A,3523.3645,N,13925.7112,E,0.0,270.0,121204,6.6,W*6E
$GPGGA,232020,3523.3645,N,13925.7112,E,1,04,,96.3,M,,M,,*41
$GPRMC,232021,A,3523.3645,N,13925.7112,E,0.0,270.0,121204,6.6,W*6F
$GPGGA,232021,3523.3645,N,13925.7112,E,1,04,,96.7,M,,M,,*44
$GPRMC,232022,A,3523.3645,N,13925.7112,E,0.0,270.0,121204,6.6,W*6C
$GPGGA,232022,3523.3645,N,13925.7112,E,1,04,,97.2,M,,M,,*43
$GPRMC,232023,A,3523.3645,N,13925.7112,E,0.0,270.0,121204,6.6,W*6D
$GPGGA,232023,3523.3645,N,13925.7112,E,1,04,,97.2,M,,M,,*42
$GPRMC,232024,A,3523.3645,N,13925.7112,E,0.0,270.0,121204,6.6,W*6A
$GPGGA,232024,3523.3645,N,13925.7112,E,1,04,,97.2,M,,M,,*45
$GPRMC,232025,A,3523.3645,N,13925.7112,E,0.0,270.0,121204,6.6,W*6B
$GPGGA,232025,3523.3645,N,13925.7112,E,1,04,,98.2,M,,M,,*4B
$GPRMC,232026,A,3523.3645,N,13925.7099,E,3.7,270.0,121204,6.6,W*6E
$GPGGA,232026,3523.3645,N,13925.7099,E,1,04,,97.7,M,,M,,*40
$GPRMC,232027,A,3523.3645,N,13925.7099,E,0.0,270.0,121204,6.6,W*6B
$GPGGA,232027,3523.3645,N,13925.7099,E,1,04,,98.2,M,,M,,*4B
$GPRMC,232028,A,3523.3658,N,13925.7099,E,4.6,0.0,121204,6.6,W*6F
$GPGGA,232028,3523.3658,N,13925.7099,E,1,04,,98.2,M,,M,,*48
$GPRMC,232029,A,3523.3658,N,13925.7099,E,0.0,0.0,121204,6.6,W*6C
$GPGGA,232029,3523.3658,N,13925.7099,E,1,04,,98.2,M,,M,,*49
$GPRMC,232030,A,3523.3658,N,13925.7099,E,0.0,0.0,121204,6.6,W*64
$GPGGA,232030,3523.3658,N,13925.7099,E,1,04,,98.2,M,,M,,*41
$GPRMC,232031,A,3523.3658,N,13925.7099,E,0.0,0.0,121204,6.6,W*65
$GPGGA,232031,3523.3658,N,13925.7099,E,1,04,,98.7,M,,M,,*45
$GPRMC,232032,A,3523.3658,N,13925.7099,E,0.0,0.0,121204,6.6,W*66
$GPGGA,232032,3523.3658,N,13925.7099,E,1,04,,98.7,M,,M,,*46
$GPRMC,232033,A,3523.3658,N,13925.7099,E,0.0,0.0,121204,6.6,W*67
$GPGGA,232033,3523.3658,N,13925.7099,E,1,04,,98.7,M,,M,,*47
$GPRMC,232034,A,3523.3658,N,13925.7099,E,0.0,0.0,121204,6.6,W*60
$GPGGA,232034,3523.3658,N,13925.7099,E,1,04,,98.7,M,,M,,*40
$GPRMC,232035,A,3523.3658,N,13925.7099,E,0.0,0.0,121204,6.6,W*61
$GPGGA,232035,3523.3658,N,13925.7099,E,1,04,,98.7,M,,M,,*41
$GPRMC,232036,A,3523.3658,N,13925.7099,E,0.0,0.0,121204,6.6,W*62
$GPGGA,232036,3523.3658,N,13925.7099,E,1,04,,99.2,M,,M,,*46
$GPRMC,232037,A,3523.3658,N,13925.7112,E,3.7,89.9,121204,6.6,W*5D
$GPGGA,232037,3523.3658,N,13925.7112,E,1,04,,99.2,M,,M,,*45
$GPRMC,232038,A,3523.3658,N,13925.7112,E,0.0,89.9,121204,6.6,W*56
$GPGGA,232038,3523.3658,N,13925.7112,E,1,04,,99.2,M,,M,,*4A
$GPRMC,232039,A,3523.3658,N,13925.7112,E,0.0,89.9,121204,6.6,W*57
$GPGGA,232039,3523.3658,N,13925.7112,E,1,04,,99.6,M,,M,,*4F
$GPRMC,232040,A,3523.3658,N,13925.7112,E,0.0,89.9,121204,6.6,W*59
$GPGGA,232040,3523.3658,N,13925.7112,E,1,04,,99.6,M,,M,,*41
$GPRMC,232041,A,3523.3658,N,13925.7112,E,0.0,89.9,121204,6.6,W*58
$GPGGA,232041,3523.3658,N,13925.7112,E,1,04,,100.1,M,,M,,*76
$GPRMC,232042,A,3523.3658,N,13925.7112,E,0.0,89.9,121204,6.6,W*5B
$GPGGA,232042,3523.3658,N,13925.7112,E,1,04,,100.1,M,,M,,*75
$GPRMC,232043,A,3523.3658,N,13925.7112,E,0.0,89.9,121204,6.6,W*5A
$GPGGA,232043,3523.3658,N,13925.7112,E,1,04,,99.6,M,,M,,*42
$GPRMC,232044,A,3523.3658,N,13925.7112,E,0.0,89.9,121204,6.6,W*5D
$GPGGA,232044,3523.3658,N,13925.7112,E,1,04,,100.1,M,,M,,*73
$GPRMC,232045,A,3523.3658,N,13925.7112,E,0.0,89.9,121204,6.6,W*5C
$GPGGA,232045,3523.3658,N,13925.7112,E,1,04,,100.6,M,,M,,*75
$GPRMC,232046,A,3523.3658,N,13925.7112,E,0.0,89.9,121204,6.6,W*5F
$GPGGA,232046,3523.3658,N,13925.7112,E,1,04,,100.6,M,,M,,*76
$GPRMC,232047,A,3523.3658,N,13925.7112,E,0.0,89.9,121204,6.6,W*5E
$GPGGA,232047,3523.3658,N,13925.7112,E,1,04,,100.6,M,,M,,*77
$GPRMC,232048,A,3523.3658,N,13925.7112,E,0.0,89.9,121204,6.6,W*51
$GPGGA,232048,3523.3658,N,13925.7112,E,1,04,,100.6,M,,M,,*78
$GPRMC,232049,A,3523.3658,N,13925.7112,E,0.0,89.9,121204,6.6,W*50
$GPGGA,232049,3523.3658,N,13925.7112,E,1,04,,101.1,M,,M,,*7F
$GPRMC,232050,A,3523.3658,N,13925.7125,E,3.7,89.9,121204,6.6,W*58
$GPGGA,232050,3523.3658,N,13925.7125,E,1,04,,101.1,M,,M,,*73
$GPRMC,232051,A,3523.3658,N,13925.7125,E,0.0,89.9,121204,6.6,W*5D
$GPGGA,232051,3523.3658,N,13925.7125,E,1,04,,101.1,M,,M,,*72
$GPRMC,232052,A,3523.3658,N,13925.7125,E,0.0,89.9,121204,6.6,W*5E
$GPGGA,232052,3523.3658,N,13925.7125,E,1,04,,101.1,M,,M,,*71
$GPRMC,232053,A,3523.3658,N,13925.7125,E,0.0,89.9,121204,6.6,W*5F
$GPGGA,232053,3523.3658,N,13925.7125,E,1,04,,101.1,M,,M,,*70
$GPRMC,232054,A,3523.3658,N,13925.7125,E,0.0,89.9,121204,6.6,W*58
$GPGGA,232054,3523.3658,N,13925.7125,E,1,04,,101.1,M,,M,,*77
$GPRMC,232055,A,3523.3645,N,13925.7125,E,4.6,180.0,121204,6.6,W*66
$GPGGA,232055,3523.3645,N,13925.7125,E,1,04,,101.1,M,,M,,*7A
$GPRMC,232056,A,3523.3645,N,13925.7125,E,0.0,180.0,121204,6.6,W*67
$GPGGA,232056,3523.3645,N,13925.7125,E,1,04,,101.6,M,,M,,*7E
$GPRMC,232057,A,3523.3645,N,13925.7125,E,0.0,180.0,121204,6.6,W*66
$GPGGA,232057,3523.3645,N,13925.7125,E,1,04,,101.6,M,,M,,*7F
$GPRMC,232058,A,3523.3645,N,13925.7125,E,0.0,180.0,121204,6.6,W*69
$GPGGA,232058,3523.3645,N,13925.7125,E,1,04,,101.6,M,,M,,*70
$GPRMC,232059,A,3523.3645,N,13925.7125,E,0.0,180.0,121204,6.6,W*68
$GPGGA,232059,3523.3645,N,13925.7125,E,1,04,,101.6,M,,M,,*71
$GPRMC,232100,A,3523.3645,N,13925.7125,E,0.0,180.0,121204,6.6,W*65
$GPGGA,232100,3523.3645,N,13925.7125,E,1,04,,101.6,M,,M,,*7C
$GPRMC,232101,A,3523.3645,N,13925.7125,E,0.0,180.0,121204,6.6,W*64
$GPGGA,232101,3523.3645,N,13925.7125,E,1,04,,102.0,M,,M,,*78
$GPRMC,232102,A,3523.3645,N,13925.7125,E,0.0,180.0,121204,6.6,W*67
$GPGGA,232102,3523.3645,N,13925.7125,E,1,04,,102.0,M,,M,,*7B
$GPRMC,232103,A,3523.3645,N,13925.7125,E,0.0,180.0,121204,6.6,W*66
$GPGGA,232103,3523.3645,N,13925.7125,E,1,04,,102.0,M,,M,,*7A
$GPRMC,232104,A,3523.3645,N,13925.7125,E,0.0,180.0,121204,6.6,W*61
$GPGGA,232104,3523.3645,N,13925.7125,E,1,04,,102.0,M,,M,,*7D
$GPRMC,232105,A,3523.3632,N,13925.7125,E,4.6,180.0,121204,6.6,W*62
$GPGGA,232105,3523.3632,N,13925.7125,E,1,04,,102.0,M,,M,,*7C
$GPRMC,232106,A,3523.3632,N,13925.7125,E,0.0,180.0,121204,6.6,W*63
$GPGGA,232106,3523.3632,N,13925.7125,E,1,04,,102.5,M,,M,,*7A
$GPRMC,232107,A,3523.3632,N,13925.7125,E,0.0,180.0,121204,6.6,W*62
$GPGGA,232107,3523.3632,N,13925.7125,E,1,04,,102.5,M,,M,,*7B
$GPRMC,232108,A,3523.3632,N,13925.7125,E,0.0,180.0,121204,6.6,W*6D
$GPGGA,232108,3523.3632,N,13925.7125,E,1,04,,102.5,M,,M,,*74
$GPRMC,232109,A,3523.3632,N,13925.7125,E,0.0,180.0,121204,6.6,W*6C
$GPGGA,232109,3523.3632,N,13925.7125,E,1,04,,102.5,M,,M,,*75
$GPRMC,232110,A,3523.3632,N,13925.7125,E,0.0,180.0,121204,6.6,W*64
$GPGGA,232110,3523.3632,N,13925.7125,E,1,04,,102.5,M,,M,,*7D
$GPRMC,232111,A,3523.3632,N,13925.7125,E,0.0,180.0,121204,6.6,W*65
$GPGGA,232111,3523.3632,N,13925.7125,E,1,04,,103.0,M,,M,,*78
$GPRMC,232112,A,3523.3632,N,13925.7125,E,0.0,180.0,121204,6.6,W*66
$GPGGA,232112,3523.3632,N,13925.7125,E,1,04,,103.0,M,,M,,*7B
$GPRMC,232113,A,3523.3632,N,13925.7125,E,0.0,180.0,121204,6.6,W*67
$GPGGA,232113,3523.3632,N,13925.7125,E,1,04,,103.0,M,,M,,*7A
$GPRMC,232114,A,3523.3632,N,13925.7125,E,0.0,180.0,121204,6.6,W*60
$GPGGA,232114,3523.3632,N,13925.7125,E,1,04,,103.0,M,,M,,*7D
$GPRMC,232115,A,3523.3632,N,13925.7125,E,0.0,180.0,121204,6.6,W*61
$GPGGA,232115,3523.3632,N,13925.7125,E,1,04,,103.5,M,,M,,*79
$GPRMC,232116,A,3523.3632,N,13925.7125,E,0.0,180.0,121204,6.6,W*62
$GPGGA,232116,3523.3632,N,13925.7125,E,1,04,,104.0,M,,M,,*78
$GPRMC,232117,A,3523.3632,N,13925.7125,E,0.0,180.0,121204,6.6,W*63
$GPGGA,232117,3523.3632,N,13925.7125,E,1,04,,103.5,M,,M,,*7B
$GPRMC,232118,A,3523.3632,N,13925.7125,E,0.0,180.0,121204,6.6,W*6C
$GPGGA,232118,3523.3632,N,13925.7125,E,1,04,,103.5,M,,M,,*74
$GPRMC,232119,A,3523.3645,N,13925.7125,E,4.6,0.0,121204,6.6,W*66
$GPGGA,232119,3523.3645,N,13925.7125,E,1,04,,103.5,M,,M,,*75
$GPRMC,232120,A,3523.3645,N,13925.7125,E,0.0,0.0,121204,6.6,W*6E
$GPGGA,232120,3523.3645,N,13925.7125,E,1,04,,104.0,M,,M,,*7D
$GPRMC,232121,A,3523.3645,N,13925.7125,E,0.0,0.0,121204,6.6,W*6F
$GPGGA,232121,3523.3645,N,13925.7125,E,1,04,,103.5,M,,M,,*7E
$GPRMC,232122,A,3523.3645,N,13925.7125,E,0.0,0.0,121204,6.6,W*6C
$GPGGA,232122,3523.3645,N,13925.7125,E,1,04,,104.4,M,,M,,*7B
$GPRMC,232123,A,3523.3645,N,13925.7112,E,3.7,270.0,121204,6.6,W*68
$GPGGA,232123,3523.3645,N,13925.7112,E,1,04,,104.4,M,,M,,*7E
$GPRMC,232124,A,3523.3645,N,13925.7112,E,0.0,270.0,121204,6.6,W*6B
$GPGGA,232124,3523.3645,N,13925.7112,E,1,04,,104.4,M,,M,,*79
$GPRMC,232125,A,3523.3645,N,13925.7112,E,0.0,270.0,121204,6.6,W*6A
$GPGGA,232125,3523.3645,N,13925.7112,E,1,04,,104.4,M,,M,,*78
$GPRMC,232126,A,3523.3645,N,13925.7112,E,0.0,270.0,121204,6.6,W*69
$GPGGA,232126,3523.3645,N,13925.7112,E,1,04,,104.9,M,,M,,*76
$GPRMC,232127,A,3523.3645,N,13925.7112,E,0.0,270.0,121204,6.6,W*68
$GPGGA,232127,3523.3645,N,13925.7112,E,1,04,,105.4,M,,M,,*7B
$GPRMC,232128,A,3523.3645,N,13925.7112,E,0.0,270.0,121204,6.6,W*67
$GPGGA,232128,3523.3645,N,13925.7112,E,1,04,,105.4,M,,M,,*74
$GPRMC,232129,A,3523.3645,N,13925.7112,E,0.0,270.0,121204,6.6,W*66
$GPGGA,232129,3523.3645,N,13925.7112,E,1,04,,105.4,M,,M,,*75
$GPRMC,232130,A,3523.3645,N,13925.7112,E,0.0,270.0,121204,6.6,W*6E
$GPGGA,232130,3523.3645,N,13925.7112,E,1,04,,105.4,M,,M,,*7D
$GPRMC,232131,A,3523.3658,N,13925.7112,E,4.6,0.0,121204,6.6,W*64
$GPGGA,232131,3523.3658,N,13925.7112,E,1,04,,105.9,M,,M,,*7D
$GPRMC,232132,A,3523.3658,N,13925.7112,E,0.0,0.0,121204,6.6,W*65
$GPGGA,232132,3523.3658,N,13925.7112,E,1,04,,105.9,M,,M,,*7E
$GPRMC,232133,A,3523.3658,N,13925.7112,E,0.0,0.0,121204,6.6,W*64
$GPGGA,232133,3523.3658,N,13925.7112,E,1,04,,105.4,M,,M,,*72
$GPRMC,232134,A,3523.3658,N,13925.7112,E,0.0,0.0,121204,6.6,W*63
$GPGGA,232134,3523.3658,N,13925.7112,E,1,04,,106.4,M,,M,,*76
$GPRMC,232135,A,3523.3658,N,13925.7112,E,0.0,0.0,121204,6.6,W*62
$GPGGA,232135,3523.3658,N,13925.7112,E,1,04,,106.4,M,,M,,*77
$GPRMC,232136,A,3523.3658,N,13925.7112,E,0.0,0.0,121204,6.6,W*61
$GPGGA,232136,3523.3658,N,13925.7112,E,1,04,,106.4,M,,M,,*74
$GPRMC,232137,A,3523.3658,N,13925.7112,E,0.0,0.0,121204,6.6,W*60
$GPGGA,232137,3523.3658,N,13925.7112,E,1,04,,106.4,M,,M,,*75
$GPRMC,232138,A,3523.3658,N,13925.7099,E,3.7,270.0,121204,6.6,W*6C
$GPGGA,232138,3523.3658,N,13925.7099,E,1,04,,106.8,M,,M,,*74
$GPRMC,232139,A,3523.3658,N,13925.7099,E,0.0,270.0,121204,6.6,W*69
$GPGGA,232139,3523.3658,N,13925.7099,E,1,04,,106.4,M,,M,,*79
$GPRMC,232140,A,3523.3658,N,13925.7099,E,0.0,270.0,121204,6.6,W*67
$GPGGA,232140,3523.3658,N,13925.7099,E,1,04,,106.8,M,,M,,*7B
$GPRMC,232141,A,3523.3658,N,13925.7099,E,0.0,270.0,121204,6.6,W*66
$GPGGA,232141,3523.3658,N,13925.7099,E,1,04,,106.8,M,,M,,*7A
$GPRMC,232142,A,3523.3658,N,13925.7099,E,0.0,270.0,121204,6.6,W*65
$GPGGA,232142,3523.3658,N,13925.7099,E,1,04,,106.8,M,,M,,*79
$GPRMC,232143,A,3523.3658,N,13925.7099,E,0.0,270.0,121204,6.6,W*64
$GPGGA,232143,3523.3658,N,13925.7099,E,1,04,,106.8,M,,M,,*78
$GPRMC,232144,A,3523.3658,N,13925.7099,E,0.0,270.0,121204,6.6,W*63
$GPGGA,232144,3523.3658,N,13925.7099,E,1,04,,107.3,M,,M,,*75
$GPRMC,232145,A,3523.3658,N,13925.7099,E,0.0,270.0,121204,6.6,W*62
$GPGGA,232145,3523.3658,N,13925.7099,E,1,04,,107.8,M,,M,,*7F
$GPRMC,232146,A,3523.3658,N,13925.7099,E,0.0,270.0,121204,6.6,W*61
$GPGGA,232146,3523.3658,N,13925.7099,E,1,04,,107.8,M,,M,,*7C
$GPRMC,232147,A,3523.3658,N,13925.7112,E,3.7,89.9,121204,6.6,W*5B
$GPGGA,232147,3523.3658,N,13925.7112,E,1,04,,108.3,M,,M,,*7B
$GPRMC,232148,A,3523.3658,N,13925.7112,E,0.0,89.9,121204,6.6,W*50
$GPGGA,232148,3523.3658,N,13925.7112,E,1,04,,107.8,M,,M,,*70
$GPRMC,232149,A,3523.3658,N,13925.7112,E,0.0,89.9,121204,6.6,W*51
$GPGGA,232149,3523.3658,N,13925.7112,E,1,04,,108.3,M,,M,,*75
$GPRMC,232150,A,3523.3658,N,13925.7112,E,0.0,89.9,121204,6.6,W*59
$GPGGA,232150,3523.3658,N,13925.7112,E,1,04,,107.8,M,,M,,*79
$GPRMC,232151,A,3523.3658,N,13925.7112,E,0.0,89.9,121204,6.6,W*58
$GPGGA,232151,3523.3658,N,13925.7112,E,1,04,,108.3,M,,M,,*7C
$GPRMC,232152,A,3523.3645,N,13925.7112,E,4.6,180.0,121204,6.6,W*64
$GPGGA,232152,3523.3645,N,13925.7112,E,1,04,,108.3,M,,M,,*73
$GPRMC,232153,A,3523.3645,N,13925.7112,E,0.0,180.0,121204,6.6,W*67
$GPGGA,232153,3523.3645,N,13925.7112,E,1,04,,108.3,M,,M,,*72
$GPRMC,232154,A,3523.3645,N,13925.7112,E,0.0,180.0,121204,6.6,W*60
$GPGGA,232154,3523.3645,N,13925.7112,E,1,04,,107.8,M,,M,,*71
$GPRMC,232155,A,3523.3645,N,13925.7112,E,0.0,180.0,121204,6.6,W*61
$GPGGA,232155,3523.3645,N,13925.7112,E,1,04,,108.3,M,,M,,*74
$GPRMC,232156,A,3523.3645,N,13925.7112,E,0.0,180.0,121204,6.6,W*62
$GPGGA,232156,3523.3645,N,13925.7112,E,1,04,,108.8,M,,M,,*7C
$GPRMC,232157,A,3523.3645,N,13925.7112,E,0.0,180.0,121204,6.6,W*63
$GPGGA,232157,3523.3645,N,13925.7112,E,1,04,,108.8,M,,M,,*7D
$GPRMC,232158,A,3523.3645,N,13925.7112,E,0.0,180.0,121204,6.6,W*6C
$GPGGA,232158,3523.3645,N,13925.7112,E,1,04,,108.8,M,,M,,*72
$GPRMC,232159,A,3523.3645,N,13925.7112,E,0.0,180.0,121204,6.6,W*6D
$GPGGA,232159,3523.3645,N,13925.7112,E,1,04,,108.8,M,,M,,*73
$GPRMC,232200,A,3523.3645,N,13925.7112,E,0.0,180.0,121204,6.6,W*62
$GPGGA,232200,3523.3645,N,13925.7112,E,1,04,,109.2,M,,M,,*77
$GPRMC,232201,A,3523.3645,N,13925.7112,E,0.0,180.0,121204,6.6,W*63
$GPGGA,232201,3523.3645,N,13925.7112,E,1,04,,109.2,M,,M,,*76
$GPRMC,232202,A,3523.3645,N,13925.7112,E,0.0,180.0,121204,6.6,W*60
$GPGGA,232202,3523.3645,N,13925.7112,E,1,04,,109.7,M,,M,,*70
$GPRMC,232203,A,3523.3645,N,13925.7112,E,0.0,180.0,121204,6.6,W*61
$GPGGA,232203,3523.3645,N,13925.7112,E,1,04,,109.2,M,,M,,*74
$GPRMC,232204,A,3523.3645,N,13925.7112,E,0.0,180.0,121204,6.6,W*66
$GPGGA,232204,3523.3645,N,13925.7112,E,1,04,,109.7,M,,M,,*76
$GPRMC,232205,A,3523.3645,N,13925.7112,E,0.0,180.0,121204,6.6,W*67
$GPGGA,232205,3523.3645,N,13925.7112,E,1,04,,109.7,M,,M,,*77
$GPRMC,232206,A,3523.3645,N,13925.7112,E,0.0,180.0,121204,6.6,W*64
$GPGGA,232206,3523.3645,N,13925.7112,E,1,04,,109.7,M,,M,,*74
$GPRMC,232207,A,3523.3645,N,13925.7112,E,0.0,180.0,121204,6.6,W*65
$GPGGA,232207,3523.3645,N,13925.7112,E,1,04,,109.7,M,,M,,*75
$GPRMC,232208,A,3523.3645,N,13925.7112,E,0.0,180.0,121204,6.6,W*6A
$GPGGA,232208,3523.3645,N,13925.7112,E,1,04,,109.7,M,,M,,*7A
$GPRMC,232209,A,3523.3645,N,13925.7112,E,0.0,180.0,121204,6.6,W*6B
$GPGGA,232209,3523.3645,N,13925.7112,E,1,04,,109.7,M,,M,,*7B
$GPRMC,232210,A,3523.3645,N,13925.7112,E,0.0,180.0,121204,6.6,W*63
$GPGGA,232210,3523.3645,N,13925.7112,E,1,04,,110.2,M,,M,,*7E
$GPRMC,232211,A,3523.3645,N,13925.7112,E,0.0,180.0,121204,6.6,W*62
$GPGGA,232211,3523.3645,N,13925.7112,E,1,04,,109.7,M,,M,,*72
$GPRMC,232212,A,3523.3645,N,13925.7112,E,0.0,180.0,121204,6.6,W*61
$GPGGA,232212,3523.3645,N,13925.7112,E,1,04,,110.2,M,,M,,*7C
$GPRMC,232213,A,3523.3645,N,13925.7112,E,0.0,180.0,121204,6.6,W*60
$GPGGA,232213,3523.3645,N,13925.7112,E,1,04,,110.7,M,,M,,*78
$GPRMC,232214,A,3523.3645,N,13925.7112,E,0.0,180.0,121204,6.6,W*67
$GPGGA,232214,3523.3645,N,13925.7112,E,1,04,,110.7,M,,M,,*7F
$GPRMC,232215,A,3523.3645,N,13925.7112,E,0.0,180.0,121204,6.6,W*66
$GPGGA,232215,3523.3645,N,13925.7112,E,1,04,,110.7,M,,M,,*7E
$GPRMC,232216,A,3523.3645,N,13925.7112,E,0.0,180.0,121204,6.6,W*65
$GPGGA,232216,3523.3645,N,13925.7112,E,1,04,,110.7,M,,M,,*7D
$GPRMC,232217,A,3523.3645,N,13925.7112,E,0.0,180.0,121204,6.6,W*64
$GPGGA,232217,3523.3645,N,13925.7112,E,1,04,,110.7,M,,M,,*7C
$GPRMC,232218,A,3523.3645,N,13925.7125,E,3.7,89.9,121204,6.6,W*5A
$GPGGA,232218,3523.3645,N,13925.7125,E,1,04,,111.2,M,,M,,*73
$GPRMC,232219,A,3523.3645,N,13925.7125,E,0.0,89.9,121204,6.6,W*5F
$GPGGA,232219,3523.3645,N,13925.7125,E,1,04,,111.2,M,,M,,*72
$GPRMC,232220,A,3523.3645,N,13925.7125,E,0.0,89.9,121204,6.6,W*55
$GPGGA,232220,3523.3645,N,13925.7125,E,1,04,,111.7,M,,M,,*7D
$GPRMC,232221,A,3523.3645,N,13925.7125,E,0.0,89.9,121204,6.6,W*54
$GPGGA,232221,3523.3645,N,13925.7125,E,1,04,,111.2,M,,M,,*79
$GPRMC,232222,A,3523.3645,N,13925.7125,E,0.0,89.9,121204,6.6,W*57
$GPGGA,232222,3523.3645,N,13925.7125,E,1,04,,111.7,M,,M,,*7F
$GPRMC,232223,A,3523.3645,N,13925.7125,E,0.0,89.9,121204,6.6,W*56
$GPGGA,232223,3523.3645,N,13925.7125,E,1,04,,111.7,M,,M,,*7E
$GPRMC,232224,A,3523.3645,N,13925.7125,E,0.0,89.9,121204,6.6,W*51
$GPGGA,232224,3523.3645,N,13925.7125,E,1,04,,111.7,M,,M,,*79
$GPRMC,232225,A,3523.3645,N,13925.7125,E,0.0,89.9,121204,6.6,W*50
$GPGGA,232225,3523.3645,N,13925.7125,E,1,04,,112.1,M,,M,,*7D
$GPRMC,232226,A,3523.3645,N,13925.7125,E,0.0,89.9,121204,6.6,W*53
$GPGGA,232226,3523.3645,N,13925.7125,E,1,04,,112.1,M,,M,,*7E
$GPRMC,232227,A,3523.3645,N,13925.7125,E,0.0,89.9,121204,6.6,W*52
$GPGGA,232227,3523.3645,N,13925.7125,E,1,04,,111.7,M,,M,,*7A
$GPRMC,232228,A,3523.3645,N,13925.7125,E,0.0,89.9,121204,6.6,W*5D
$GPGGA,232228,3523.3645,N,13925.7125,E,1,04,,112.1,M,,M,,*70
$GPRMC,232229,A,3523.3645,N,13925.7125,E,0.0,89.9,121204,6.6,W*5C
$GPGGA,232229,3523.3645,N,13925.7125,E,1,04,,111.7,M,,M,,*74
$GPRMC,232230,A,3523.3645,N,13925.7125,E,0.0,89.9,121204,6.6,W*54
$GPGGA,232230,3523.3645,N,13925.7125,E,1,04,,112.1,M,,M,,*79
$GPRMC,232231,A,3523.3645,N,13925.7125,E,0.0,89.9,121204,6.6,W*55
$GPGGA,232231,3523.3645,N,13925.7125,E,1,04,,112.1,M,,M,,*78
$GPRMC,232232,A,3523.3645,N,13925.7125,E,0.0,89.9,121204,6.6,W*56
$GPGGA,232232,3523.3645,N,13925.7125,E,1,04,,112.1,M,,M,,*7B
$GPRMC,232233,A,3523.3645,N,13925.7125,E,0.0,89.9,121204,6.6,W*57
$GPGGA,232233,3523.3645,N,13925.7125,E,1,04,,112.1,M,,M,,*7A
$GPRMC,232234,A,3523.3645,N,13925.7125,E,0.0,89.9,121204,6.6,W*50
$GPGGA,232234,3523.3645,N,13925.7125,E,1,04,,113.1,M,,M,,*7C
$GPRMC,232235,A,3523.3645,N,13925.7125,E,0.0,89.9,121204,6.6,W*51
$GPGGA,232235,3523.3645,N,13925.7125,E,1,04,,113.1,M,,M,,*7D
$GPRMC,232236,A,3523.3645,N,13925.7125,E,0.0,89.9,121204,6.6,W*52
$GPGGA,232236,3523.3645,N,13925.7125,E,1,04,,112.6,M,,M,,*78
$GPRMC,232237,A,3523.3645,N,13925.7125,E,0.0,89.9,121204,6.6,W*53
$GPGGA,232237,3523.3645,N,13925.7125,E,1,04,,113.1,M,,M,,*7F
$GPRMC,232238,A,3523.3645,N,13925.7125,E,0.0,89.9,121204,6.6,W*5C
$GPGGA,232238,3523.3645,N,13925.7125,E,1,04,,113.1,M,,M,,*70
$GPRMC,232239,A,3523.3645,N,13925.7125,E,0.0,89.9,121204,6.6,W*5D
$GPGGA,232239,3523.3645,N,13925.7125,E,1,04,,112.6,M,,M,,*77
$GPRMC,232240,A,3523.3645,N,13925.7125,E,0.0,89.9,121204,6.6,W*53
$GPGGA,232240,3523.3645,N,13925.7125,E,1,04,,113.1,M,,M,,*7F
$GPRMC,232241,A,3523.3645,N,13925.7125,E,0.0,89.9,121204,6.6,W*52
$GPGGA,232241,3523.3645,N,13925.7125,E,1,04,,113.6,M,,M,,*79
$GPRMC,232242,A,3523.3645,N,13925.7125,E,0.0,89.9,121204,6.6,W*51
$GPGGA,232242,3523.3645,N,13925.7125,E,1,04,,113.6,M,,M,,*7A
$GPRMC,232243,A,3523.3645,N,13925.7125,E,0.0,89.9,121204,6.6,W*50
$GPGGA,232243,3523.3645,N,13925.7125,E,1,04,,113.6,M,,M,,*7B
$GPRMC,232244,A,3523.3645,N,13925.7125,E,0.0,89.9,121204,6.6,W*57
$GPGGA,232244,3523.3645,N,13925.7125,E,1,04,,114.1,M,,M,,*7C
$GPRMC,232245,A,3523.3645,N,13925.7125,E,0.0,89.9,121204,6.6,W*56
$GPGGA,232245,3523.3645,N,13925.7125,E,1,04,,114.1,M,,M,,*7D
$GPRMC,232246,A,3523.3645,N,13925.7125,E,0.0,89.9,121204,6.6,W*55
$GPGGA,232246,3523.3645,N,13925.7125,E,1,04,,114.1,M,,M,,*7E
$GPRMC,232247,A,3523.3645,N,13925.7125,E,0.0,89.9,121204,6.6,W*54
$GPGGA,232247,3523.3645,N,13925.7125,E,1,04,,113.6,M,,M,,*7F
$GPRMC,232248,A,3523.3645,N,13925.7125,E,0.0,89.9,121204,6.6,W*5B
$GPGGA,232248,3523.3645,N,13925.7125,E,1,04,,114.1,M,,M,,*70
$GPRMC,232249,A,3523.3645,N,13925.7125,E,0.0,89.9,121204,6.6,W*5A
$GPGGA,232249,3523.3645,N,13925.7125,E,1,04,,114.1,M,,M,,*71
$GPRMC,232250,A,3523.3645,N,13925.7112,E,3.7,270.0,121204,6.6,W*6F
$GPGGA,232250,3523.3645,N,13925.7112,E,1,04,,114.1,M,,M,,*7D
$GPRMC,232251,A,3523.3645,N,13925.7112,E,0.0,270.0,121204,6.6,W*6A
$GPGGA,232251,3523.3645,N,13925.7112,E,1,04,,114.1,M,,M,,*7C
$GPRMC,232252,A,3523.3645,N,13925.7112,E,0.0,270.0,121204,6.6,W*69
$GPGGA,232252,3523.3645,N,13925.7112,E,1,04,,113.6,M,,M,,*7F
$GPRMC,232253,A,3523.3645,N,13925.7112,E,0.0,270.0,121204,6.6,W*68
$GPGGA,232253,3523.3645,N,13925.7112,E,1,04,,114.1,M,,M,,*7E
$GPRMC,232254,A,3523.3645,N,13925.7112,E,0.0,270.0,121204,6.6,W*6F
$GPGGA,232254,3523.3645,N,13925.7112,E,1,04,,114.5,M,,M,,*7D
$GPRMC,232255,A,3523.3645,N,13925.7112,E,0.0,270.0,121204,6.6,W*6E
$GPGGA,232255,3523.3645,N,13925.7112,E,1,04,,114.5,M,,M,,*7C
$GPRMC,232256,A,3523.3645,N,13925.7112,E,0.0,270.0,121204,6.6,W*6D
$GPGGA,232256,3523.3645,N,13925.7112,E,1,04,,114.5,M,,M,,*7F
$GPRMC,232257,A,3523.3645,N,13925.7112,E,0.0,270.0,121204,6.6,W*6C
$GPGGA,232257,3523.3645,N,13925.7112,E,1,04,,114.5,M,,M,,*7E
$GPRMC,232258,A,3523.3645,N,13925.7112,E,0.0,270.0,121204,6.6,W*63
$GPGGA,232258,3523.3645,N,13925.7112,E,1,04,,114.5,M,,M,,*71
$GPRMC,232259,A,3523.3645,N,13925.7112,E,0.0,270.0,121204,6.6,W*62
$GPGGA,232259,3523.3645,N,13925.7112,E,1,04,,114.5,M,,M,,*70
$GPRMC,232300,A,3523.3645,N,13925.7112,E,0.0,270.0,121204,6.6,W*6F
$GPGGA,232300,3523.3645,N,13925.7112,E,1,04,,115.0,M,,M,,*79
$GPRMC,232301,A,3523.3645,N,13925.7112,E,0.0,270.0,121204,6.6,W*6E
$GPGGA,232301,3523.3645,N,13925.7112,E,1,04,,115.0,M,,M,,*78
$GPRMC,232302,A,3523.3645,N,13925.7112,E,0.0,270.0,121204,6.6,W*6D
$GPGGA,232302,3523.3645,N,13925.7112,E,1,04,,115.0,M,,M,,*7B
$GPRMC,232303,A,3523.3645,N,13925.7112,E,0.0,270.0,121204,6.6,W*6C
$GPGGA,232303,3523.3645,N,13925.7112,E,1,04,,114.5,M,,M,,*7E
$GPRMC,232304,A,3523.3645,N,13925.7112,E,0.0,270.0,121204,6.6,W*6B
$GPGGA,232304,3523.3645,N,13925.7112,E,1,04,,115.5,M,,M,,*78
$GPRMC,232305,A,3523.3645,N,13925.7112,E,0.0,270.0,121204,6.6,W*6A
$GPGGA,232305,3523.3645,N,13925.7112,E,1,04,,115.5,M,,M,,*79
$GPRMC,232306,A,3523.3645,N,13925.7112,E,0.0,270.0,121204,6.6,W*69
$GPGGA,232306,3523.3645,N,13925.7112,E,1,04,,115.0,M,,M,,*7F
$GPRMC,232307,A,3523.3645,N,13925.7112,E,0.0,270.0,121204,6.6,W*68
$GPGGA,232307,3523.3645,N,13925.7112,E,1,04,,116.0,M,,M,,*7D
$GPRMC,232308,A,3523.3632,N,13925.7112,E,4.6,180.0,121204,6.6,W*69
$GPGGA,232308,3523.3632,N,13925.7112,E,1,04,,116.5,M,,M,,*77
$GPRMC,232309,A,3523.3632,N,13925.7112,E,0.0,180.0,121204,6.6,W*6A
$GPGGA,232309,3523.3632,N,13925.7112,E,1,04,,115.5,M,,M,,*75
$GPRMC,232310,A,3523.3632,N,13925.7099,E,3.7,270.0,121204,6.6,W*68
$GPGGA,232310,3523.3632,N,13925.7099,E,1,04,,116.0,M,,M,,*79
$GPRMC,232311,A,3523.3632,N,13925.7099,E,0.0,270.0,121204,6.6,W*6D
$GPGGA,232311,3523.3632,N,13925.7099,E,1,04,,116.0,M,,M,,*78
$GPRMC,232312,A,3523.3632,N,13925.7099,E,0.0,270.0,121204,6.6,W*6E
$GPGGA,232312,3523.3632,N,13925.7099,E,1,04,,116.0,M,,M,,*7B
$GPRMC,232313,A,3523.3632,N,13925.7099,E,0.0,270.0,121204,6.6,W*6F
$GPGGA,232313,3523.3632,N,13925.7099,E,1,04,,116.0,M,,M,,*7A
$GPRMC,232314,A,3523.3632,N,13925.7099,E,0.0,270.0,121204,6.6,W*68
$GPGGA,232314,3523.3632,N,13925.7099,E,1,04,,116.5,M,,M,,*78
$GPRMC,232315,A,3523.3632,N,13925.7099,E,0.0,270.0,121204,6.6,W*69
$GPGGA,232315,3523.3632,N,13925.7099,E,1,04,,116.5,M,,M,,*79
$GPRMC,232316,A,3523.3632,N,13925.7099,E,0.0,270.0,121204,6.6,W*6A
$GPGGA,232316,3523.3632,N,13925.7099,E,1,04,,117.4,M,,M,,*7A
$GPRMC,232317,A,3523.3632,N,13925.7099,E,0.0,270.0,121204,6.6,W*6B
$GPGGA,232317,3523.3632,N,13925.7099,E,1,04,,116.9,M,,M,,*77
$GPRMC,232318,A,3523.3632,N,13925.7099,E,0.0,270.0,121204,6.6,W*64
$GPGGA,232318,3523.3632,N,13925.7099,E,1,04,,116.9,M,,M,,*78
$GPRMC,232319,A,3523.3632,N,13925.7099,E,0.0,270.0,121204,6.6,W*65
$GPGGA,232319,3523.3632,N,13925.7099,E,1,04,,117.4,M,,M,,*75
$GPRMC,232320,A,3523.3632,N,13925.7099,E,0.0,270.0,121204,6.6,W*6F
$GPGGA,232320,3523.3632,N,13925.7099,E,1,04,,118.4,M,,M,,*70
$GPRMC,232321,A,3523.3632,N,13925.7099,E,0.0,270.0,121204,6.6,W*6E
$GPGGA,232321,3523.3632,N,13925.7099,E,1,04,,117.9,M,,M,,*73
$GPRMC,232322,A,3523.3632,N,13925.7099,E,0.0,270.0,121204,6.6,W*6D
$GPGGA,232322,3523.3632,N,13925.7099,E,1,04,,118.4,M,,M,,*72
$GPRMC,232323,A,3523.3632,N,13925.7099,E,0.0,270.0,121204,6.6,W*6C
$GPGGA,232323,3523.3632,N,13925.7099,E,1,04,,118.4,M,,M,,*73
$GPRMC,232324,A,3523.3632,N,13925.7099,E,0.0,270.0,121204,6.6,W*6B
$GPGGA,232324,3523.3632,N,13925.7099,E,1,04,,118.4,M,,M,,*74
$GPRMC,232325,A,3523.3632,N,13925.7099,E,0.0,270.0,121204,6.6,W*6A
$GPGGA,232325,3523.3632,N,13925.7099,E,1,04,,117.9,M,,M,,*77
$GPRMC,232326,A,3523.3632,N,13925.7099,E,0.0,270.0,121204,6.6,W*69
$GPGGA,232326,3523.3632,N,13925.7099,E,1,04,,118.4,M,,M,,*76
$GPRMC,232327,A,3523.3632,N,13925.7099,E,0.0,270.0,121204,6.6,W*68
$GPGGA,232327,3523.3632,N,13925.7099,E,1,04,,118.9,M,,M,,*7A
$GPRMC,232328,A,3523.3619,N,13925.7099,E,4.6,179.9,121204,6.6,W*6F
$GPGGA,232328,3523.3619,N,13925.7099,E,1,04,,118.4,M,,M,,*71
$GPRMC,232329,A,3523.3619,N,13925.7112,E,3.7,89.9,121204,6.6,W*54
$GPGGA,232329,3523.3619,N,13925.7112,E,1,04,,118.9,M,,M,,*7F
$GPRMC,232330,A,3523.3619,N,13925.7112,E,0.0,89.9,121204,6.6,W*58
$GPGGA,232330,3523.3619,N,13925.7112,E,1,04,,119.3,M,,M,,*7C
$GPRMC,232331,A,3523.3619,N,13925.7112,E,0.0,89.9,121204,6.6,W*59
$GPGGA,232331,3523.3619,N,13925.7112,E,1,04,,119.3,M,,M,,*7D
$GPRMC,232332,A,3523.3619,N,13925.7112,E,0.0,89.9,121204,6.6,W*5A
$GPGGA,232332,3523.3619,N,13925.7112,E,1,04,,118.9,M,,M,,*75
$GPRMC,232333,A,3523.3619,N,13925.7112,E,0.0,89.9,121204,6.6,W*5B
$GPGGA,232333,3523.3619,N,13925.7112,E,1,04,,119.3,M,,M,,*7F
$GPRMC,232334,A,3523.3619,N,13925.7112,E,0.0,89.9,121204,6.6,W*5C
$GPGGA,232334,3523.3619,N,13925.7112,E,1,04,,119.3,M,,M,,*78
$GPRMC,232335,A,3523.3619,N,13925.7112,E,0.0,89.9,121204,6.6,W*5D
$GPGGA,232335,3523.3619,N,13925.7112,E,1,04,,119.3,M,,M,,*79
$GPRMC,232336,A,3523.3619,N,13925.7112,E,0.0,89.9,121204,6.6,W*5E
$GPGGA,232336,3523.3619,N,13925.7112,E,1,04,,119.3,M,,M,,*7A
$GPRMC,232337,A,3523.3619,N,13925.7112,E,0.0,89.9,121204,6.6,W*5F
$GPGGA,232337,3523.3619,N,13925.7112,E,1,04,,119.3,M,,M,,*7B
$GPRMC,232338,A,3523.3619,N,13925.7112,E,0.0,89.9,121204,6.6,W*50
$GPGGA,232338,3523.3619,N,13925.7112,E,1,04,,119.8,M,,M,,*7F
$GPRMC,232339,A,3523.3619,N,13925.7112,E,0.0,89.9,121204,6.6,W*51
$GPGGA,232339,3523.3619,N,13925.7112,E,1,04,,119.8,M,,M,,*7E
$GPRMC,232340,A,3523.3619,N,13925.7112,E,0.0,89.9,121204,6.6,W*5F
$GPGGA,232340,3523.3619,N,13925.7112,E,1,04,,119.8,M,,M,,*70
$GPRMC,232341,A,3523.3619,N,13925.7099,E,3.7,270.0,121204,6.6,W*65
$GPGGA,232341,3523.3619,N,13925.7099,E,1,04,,119.3,M,,M,,*78
$GPRMC,232342,A,3523.3619,N,13925.7112,E,3.7,89.9,121204,6.6,W*59
$GPGGA,232342,3523.3619,N,13925.7112,E,1,04,,119.8,M,,M,,*72
$GPRMC,232343,A,3523.3619,N,13925.7112,E,0.0,89.9,121204,6.6,W*5C
$GPGGA,232343,3523.3619,N,13925.7112,E,1,04,,120.3,M,,M,,*72
$GPRMC,232344,A,3523.3619,N,13925.7112,E,0.0,89.9,121204,6.6,W*5B
$GPGGA,232344,3523.3619,N,13925.7112,E,1,04,,119.8,M,,M,,*74
$GPRMC,232345,A,3523.3606,N,13925.7137,E,8.8,121.5,121204,6.6,W*6C
$GPGGA,232345,3523.3606,N,13925.7137,E,1,04,,120.3,M,,M,,*7D
$GPRMC,232346,A,3523.3606,N,13925.7189,E,15.1,89.9,121204,6.6,W*60
$GPGGA,232346,3523.3606,N,13925.7189,E,1,04,,121.3,M,,M,,*7A
$GPRMC,232347,A,3523.3606,N,13925.7240,E,15.1,89.9,121204,6.6,W*67
$GPGGA,232347,3523.3606,N,13925.7240,E,1,04,,120.3,M,,M,,*7C
$GPRMC,232348,A,3523.3593,N,13925.7292,E,15.8,107.0,121204,6.6,W*5F
$GPGGA,232348,3523.3593,N,13925.7292,E,1,04,,120.3,M,,M,,*73
$GPRMC,232349,A,3523.3593,N,13925.7356,E,18.9,89.9,121204,6.6,W*65
$GPGGA,232349,3523.3593,N,13925.7356,E,1,04,,120.3,M,,M,,*7B
$GPRMC,232350,A,3523.3593,N,13925.7408,E,15.1,89.9,121204,6.6,W*64
$GPGGA,232350,3523.3593,N,13925.7408,E,1,04,,120.3,M,,M,,*7F
$GPRMC,232351,A,3523.3593,N,13925.7485,E,22.7,89.9,121204,6.6,W*62
$GPGGA,232351,3523.3593,N,13925.7485,E,1,04,,120.8,M,,M,,*70
$GPRMC,232352,A,3523.3581,N,13925.7549,E,19.4,103.7,121204,6.6,W*55
$GPGGA,232352,3523.3581,N,13925.7549,E,1,04,,121.7,M,,M,,*7F
$GPRMC,232353,A,3523.3581,N,13925.7614,E,18.9,89.9,121204,6.6,W*6E
$GPGGA,232353,3523.3581,N,13925.7614,E,1,04,,121.7,M,,M,,*75
$GPRMC,232355,A,3523.3581,N,13925.7768,E,22.7,89.9,121204,6.6,W*65
$GPGGA,232355,3523.3581,N,13925.7768,E,1,04,,122.7,M,,M,,*7A
$GPRMC,232356,A,3523.3593,N,13925.7833,E,19.4,76.2,121204,6.6,W*64
$GPGGA,232356,3523.3593,N,13925.7833,E,1,04,,123.2,M,,M,,*7F
$GPRMC,232357,A,3523.3606,N,13925.7897,E,19.4,76.2,121204,6.6,W*64
$GPGGA,232357,3523.3606,N,13925.7897,E,1,04,,123.2,M,,M,,*7F
$GPRMC,232358,A,3523.3619,N,13925.7961,E,19.4,76.2,121204,6.6,W*6D
$GPGGA,232358,3523.3619,N,13925.7961,E,1,04,,123.7,M,,M,,*73
$GPRMC,232359,A,3523.3645,N,13925.8013,E,17.7,58.4,121204,6.6,W*61
$GPGGA,232359,3523.3645,N,13925.8013,E,1,04,,123.2,M,,M,,*7D
$GPRMC,232400,A,3523.3658,N,13925.8064,E,15.8,72.9,121204,6.6,W*6E
$GPGGA,232400,3523.3658,N,13925.8064,E,1,04,,122.7,M,,M,,*7E
$GPRMC,232401,A,3523.3684,N,13925.8116,E,17.7,58.4,121204,6.6,W*62
$GPGGA,232401,3523.3684,N,13925.8116,E,1,04,,124.1,M,,M,,*7A
$GPRMC,232402,A,3523.3696,N,13925.8155,E,12.2,67.7,121204,6.6,W*6A
$GPGGA,232402,3523.3696,N,13925.8155,E,1,04,,124.1,M,,M,,*7D
$GPRMC,232403,A,3523.3709,N,13925.8206,E,15.8,72.9,121204,6.6,W*6E
$GPGGA,232403,3523.3709,N,13925.8206,E,1,04,,124.6,M,,M,,*79
$GPRMC,232404,A,3523.3722,N,13925.8258,E,15.8,72.9,121204,6.6,W*6B
$GPGGA,232404,3523.3722,N,13925.8258,E,1,04,,125.1,M,,M,,*7A
$GPRMC,232405,A,3523.3735,N,13925.8309,E,15.8,72.9,121204,6.6,W*69
$GPGGA,232405,3523.3735,N,13925.8309,E,1,04,,125.1,M,,M,,*78
$GPRMC,232406,A,3523.3735,N,13925.8361,E,15.1,89.9,121204,6.6,W*69
$GPGGA,232406,3523.3735,N,13925.8361,E,1,04,,125.1,M,,M,,*75
$GPRMC,232407,A,3523.3709,N,13925.8412,E,17.7,121.5,121204,6.6,W*5F
$GPGGA,232407,3523.3709,N,13925.8412,E,1,04,,125.6,M,,M,,*7F
$GPRMC,232408,A,3523.3696,N,13925.8464,E,15.8,107.0,121204,6.6,W*5A
$GPGGA,232408,3523.3696,N,13925.8464,E,1,04,,126.1,M,,M,,*72
$GPRMC,232409,A,3523.3684,N,13925.8489,E,8.8,121.5,121204,6.6,W*66
$GPGGA,232409,3523.3684,N,13925.8489,E,1,04,,127.0,M,,M,,*73
$GPRMC,232410,A,3523.3671,N,13925.8515,E,8.8,121.5,121204,6.6,W*60
$GPGGA,232410,3523.3671,N,13925.8515,E,1,04,,127.0,M,,M,,*75
$GPRMC,232411,A,3523.3658,N,13925.8554,E,12.2,112.2,121204,6.6,W*59
$GPGGA,232411,3523.3658,N,13925.8554,E,1,04,,127.5,M,,M,,*7F
$GPRMC,232412,A,3523.3671,N,13925.8592,E,12.2,67.7,121204,6.6,W*6D
$GPGGA,232412,3523.3671,N,13925.8592,E,1,04,,128.0,M,,M,,*77
$GPRMC,232413,A,3523.3671,N,13925.8631,E,11.3,89.9,121204,6.6,W*6A
$GPGGA,232413,3523.3671,N,13925.8631,E,1,04,,128.0,M,,M,,*7C
$GPRMC,232414,A,3523.3696,N,13925.8669,E,14.6,50.7,121204,6.6,W*63
$GPGGA,232414,3523.3696,N,13925.8669,E,1,04,,128.5,M,,M,,*7A
$GPRMC,232415,A,3523.3722,N,13925.8708,E,14.6,50.7,121204,6.6,W*6A
$GPGGA,232415,3523.3722,N,13925.8708,E,1,04,,128.5,M,,M,,*73
$GPRMC,232416,A,3523.3774,N,13925.8747,E,21.7,31.4,121204,6.6,W*62
$GPGGA,232416,3523.3774,N,13925.8747,E,1,04,,129.4,M,,M,,*78
$GPRMC,232417,A,3523.3812,N,13925.8785,E,17.9,39.1,121204,6.6,W*64
$GPGGA,232417,3523.3812,N,13925.8785,E,1,04,,129.0,M,,M,,*7C
$GPRMC,232418,A,3523.3851,N,13925.8811,E,15.8,28.5,121204,6.6,W*69
$GPGGA,232418,3523.3851,N,13925.8811,E,1,04,,129.0,M,,M,,*76
$GPRMC,232419,A,3523.3890,N,13925.8850,E,17.9,39.1,121204,6.6,W*67
$GPGGA,232419,3523.3890,N,13925.8850,E,1,04,,129.9,M,,M,,*76
$GPRMC,232420,A,3523.3915,N,13925.8875,E,11.9,39.1,121204,6.6,W*60
$GPGGA,232420,3523.3915,N,13925.8875,E,1,04,,129.9,M,,M,,*77
$GPRMC,232421,A,3523.3954,N,13925.8901,E,15.8,28.5,121204,6.6,W*67
$GPGGA,232421,3523.3954,N,13925.8901,E,1,04,,130.4,M,,M,,*74
$GPRMC,232422,A,3523.3967,N,13925.8940,E,12.2,67.7,121204,6.6,W*65
$GPGGA,232422,3523.3967,N,13925.8940,E,1,04,,131.4,M,,M,,*73
$GPRMC,232423,A,3523.3993,N,13925.8978,E,14.6,50.7,121204,6.6,W*62
$GPGGA,232423,3523.3993,N,13925.8978,E,1,04,,131.4,M,,M,,*72
$GPRMC,232424,A,3523.4005,N,13925.9017,E,12.2,67.7,121204,6.6,W*63
$GPGGA,232424,3523.4005,N,13925.9017,E,1,04,,131.8,M,,M,,*79
$GPRMC,232425,A,3523.4005,N,13925.9069,E,15.1,89.9,121204,6.6,W*61
$GPGGA,232425,3523.4005,N,13925.9069,E,1,04,,131.8,M,,M,,*71
$GPRMC,232426,A,3523.3993,N,13925.9133,E,19.4,103.7,121204,6.6,W*59
$GPGGA,232426,3523.3993,N,13925.9133,E,1,04,,132.3,M,,M,,*75
$GPRMC,232427,A,3523.3980,N,13925.9184,E,15.8,107.0,121204,6.6,W*55
$GPGGA,232427,3523.3980,N,13925.9184,E,1,04,,132.8,M,,M,,*71
$GPRMC,232428,A,3523.3967,N,13925.9262,E,23.1,101.5,121204,6.6,W*57
$GPGGA,232428,3523.3967,N,13925.9262,E,1,04,,132.8,M,,M,,*7C
$GPRMC,232429,A,3523.3954,N,13925.9339,E,23.1,101.5,121204,6.6,W*59
$GPGGA,232429,3523.3954,N,13925.9339,E,1,04,,133.8,M,,M,,*73
$GPRMC,232430,A,3523.3954,N,13925.9429,E,26.4,89.9,121204,6.6,W*6A
$GPGGA,232430,3523.3954,N,13925.9429,E,1,04,,133.3,M,,M,,*76
$GPRMC,232431,A,3523.3941,N,13925.9532,E,30.6,98.7,121204,6.6,W*6F
$GPGGA,232431,3523.3941,N,13925.9532,E,1,04,,133.8,M,,M,,*73
$GPRMC,232432,A,3523.3941,N,13925.9622,E,26.4,89.9,121204,6.6,W*65
$GPGGA,232432,3523.3941,N,13925.9622,E,1,04,,133.8,M,,M,,*72
$GPRMC,232433,A,3523.3928,N,13925.9712,E,26.8,99.9,121204,6.6,W*64
$GPGGA,232433,3523.3928,N,13925.9712,E,1,04,,133.8,M,,M,,*7E
$GPRMC,232434,A,3523.3928,N,13925.9815,E,30.2,89.9,121204,6.6,W*67
$GPGGA,232434,3523.3928,N,13925.9815,E,1,04,,134.7,M,,M,,*79
$GPRMC,232435,A,3523.3928,N,13925.9918,E,30.2,89.9,121204,6.6,W*6A
$GPGGA,232435,3523.3928,N,13925.9918,E,1,04,,134.7,M,,M,,*74
$GPRMC,232436,A,3523.3915,N,13926.0021,E,30.6,98.7,121204,6.6,W*64
$GPGGA,232436,3523.3915,N,13926.0021,E,1,04,,135.2,M,,M,,*74
$GPRMC,232437,A,3523.3915,N,13926.0137,E,34.0,89.9,121204,6.6,W*6F
$GPGGA,232437,3523.3915,N,13926.0137,E,1,04,,135.7,M,,M,,*76
$GPRMC,232438,A,3523.3902,N,13926.0240,E,30.6,98.7,121204,6.6,W*69
$GPGGA,232438,3523.3902,N,13926.0240,E,1,04,,136.2,M,,M,,*7A
$GPRMC,232439,A,3523.3890,N,13926.0343,E,30.6,98.7,121204,6.6,W*60
$GPGGA,232439,3523.3890,N,13926.0343,E,1,04,,136.2,M,,M,,*73
$GPRMC,232440,A,3523.3890,N,13926.0459,E,34.0,89.9,121204,6.6,W*6E
$GPGGA,232440,3523.3890,N,13926.0459,E,1,04,,136.2,M,,M,,*71
$GPRMC,232441,A,3523.3877,N,13926.0562,E,30.6,98.7,121204,6.6,W*63
$GPGGA,232441,3523.3877,N,13926.0562,E,1,04,,137.1,M,,M,,*72
$GPRMC,232442,A,3523.3877,N,13926.0678,E,34.0,89.9,121204,6.6,W*64
$GPGGA,232442,3523.3877,N,13926.0678,E,1,04,,138.1,M,,M,,*76
$GPRMC,232443,A,3523.3864,N,13926.0781,E,30.6,98.7,121204,6.6,W*6C
$GPGGA,232443,3523.3864,N,13926.0781,E,1,04,,137.6,M,,M,,*7A
$GPRMC,232444,A,3523.3877,N,13926.0897,E,34.3,82.2,121204,6.6,W*6E
$GPGGA,232444,3523.3877,N,13926.0897,E,1,04,,139.0,M,,M,,*7F
$GPRMC,232445,A,3523.3877,N,13926.1000,E,30.2,89.9,121204,6.6,W*6D
$GPGGA,232445,3523.3877,N,13926.1000,E,1,04,,139.5,M,,M,,*7C
$GPRMC,232446,A,3523.3902,N,13926.1116,E,35.3,74.7,121204,6.6,W*63
$GPGGA,232446,3523.3902,N,13926.1116,E,1,04,,139.5,M,,M,,*7A
$GPRMC,232447,A,3523.3915,N,13926.1219,E,30.6,81.2,121204,6.6,W*67
$GPGGA,232447,3523.3915,N,13926.1219,E,1,04,,139.5,M,,M,,*71
$GPRMC,232448,A,3523.3941,N,13926.1296,E,24.5,67.7,121204,6.6,W*65
$GPGGA,232448,3523.3941,N,13926.1296,E,1,04,,139.5,M,,M,,*78
$GPRMC,232449,A,3523.3967,N,13926.1386,E,28.0,70.6,121204,6.6,W*6E
$GPGGA,232449,3523.3967,N,13926.1386,E,1,04,,140.0,M,,M,,*76
$GPRMC,232450,A,3523.4005,N,13926.1463,E,26.6,58.4,121204,6.6,W*60
$GPGGA,232450,3523.4005,N,13926.1463,E,1,04,,140.5,M,,M,,*7D
$GPRMC,232451,A,3523.4031,N,13926.1541,E,24.5,67.7,121204,6.6,W*69
$GPGGA,232451,3523.4031,N,13926.1541,E,1,04,,141.0,M,,M,,*7E
$GPRMC,232452,A,3523.4070,N,13926.1605,E,23.4,53.6,121204,6.6,W*6C
$GPGGA,232452,3523.4070,N,13926.1605,E,1,04,,141.5,M,,M,,*7E
$GPRMC,232453,A,3523.4108,N,13926.1682,E,26.6,58.4,121204,6.6,W*62
$GPGGA,232453,3523.4108,N,13926.1682,E,1,04,,141.9,M,,M,,*72
$GPRMC,232454,A,3523.4147,N,13926.1772,E,29.9,62.2,121204,6.6,W*6F
$GPGGA,232454,3523.4147,N,13926.1772,E,1,04,,142.4,M,,M,,*7E
$GPRMC,232455,A,3523.4173,N,13926.1850,E,24.5,67.7,121204,6.6,W*67
$GPGGA,232455,3523.4173,N,13926.1850,E,1,04,,141.9,M,,M,,*79
$GPRMC,232456,A,3523.4211,N,13926.1940,E,29.9,62.2,121204,6.6,W*62
$GPGGA,232456,3523.4211,N,13926.1940,E,1,04,,142.4,M,,M,,*73
$GPRMC,232457,A,3523.4250,N,13926.2030,E,29.9,62.2,121204,6.6,W*6B
$GPGGA,232457,3523.4250,N,13926.2030,E,1,04,,142.4,M,,M,,*7A
$GPRMC,232458,A,3523.4302,N,13926.2120,E,32.3,54.9,121204,6.6,W*6C
$GPGGA,232458,3523.4302,N,13926.2120,E,1,04,,142.9,M,,M,,*7E
$GPRMC,232459,A,3523.4327,N,13926.2223,E,31.6,72.9,121204,6.6,W*68
$GPGGA,232459,3523.4327,N,13926.2223,E,1,04,,143.4,M,,M,,*74
$GPRMC,232500,A,3523.4379,N,13926.2313,E,32.3,54.9,121204,6.6,W*6E
$GPGGA,232500,3523.4379,N,13926.2313,E,1,04,,143.9,M,,M,,*7D
$GPRMC,232501,A,3523.4417,N,13926.2416,E,33.3,65.2,121204,6.6,W*6A
$GPGGA,232501,3523.4417,N,13926.2416,E,1,04,,144.3,M,,M,,*7C
$GPRMC,232502,A,3523.4456,N,13926.2519,E,33.3,65.2,121204,6.6,W*62
$GPGGA,232502,3523.4456,N,13926.2519,E,1,04,,144.3,M,,M,,*74
$GPRMC,232503,A,3523.4508,N,13926.2609,E,32.3,54.9,121204,6.6,W*63
$GPGGA,232503,3523.4508,N,13926.2609,E,1,04,,144.8,M,,M,,*76
$GPRMC,232504,A,3523.4546,N,13926.2712,E,33.3,65.2,121204,6.6,W*6D
$GPGGA,232504,3523.4546,N,13926.2712,E,1,04,,145.3,M,,M,,*7A
$GPRMC,232505,A,3523.4598,N,13926.2802,E,32.3,54.9,121204,6.6,W*69
$GPGGA,232505,3523.4598,N,13926.2802,E,1,04,,145.8,M,,M,,*7D
$GPRMC,232506,A,3523.4636,N,13926.2905,E,33.3,65.2,121204,6.6,W*63
$GPGGA,232506,3523.4636,N,13926.2905,E,1,04,,146.3,M,,M,,*77
$GPRMC,232507,A,3523.4675,N,13926.3008,E,33.3,65.2,121204,6.6,W*60
$GPGGA,232507,3523.4675,N,13926.3008,E,1,04,,145.8,M,,M,,*7C
$GPRMC,232508,A,3523.4714,N,13926.3098,E,29.9,62.2,121204,6.6,W*66
$GPGGA,232508,3523.4714,N,13926.3098,E,1,04,,147.2,M,,M,,*74
$GPRMC,232509,A,3523.4765,N,13926.3201,E,35.4,58.4,121204,6.6,W*6C
$GPGGA,232509,3523.4765,N,13926.3201,E,1,04,,147.2,M,,M,,*71
$GPRMC,232510,A,3523.4804,N,13926.3291,E,29.9,62.2,121204,6.6,W*6A
$GPGGA,232510,3523.4804,N,13926.3291,E,1,04,,147.7,M,,M,,*7D
$GPRMC,232511,A,3523.4842,N,13926.3369,E,26.6,58.4,121204,6.6,W*60
$GPGGA,232511,3523.4842,N,13926.3369,E,1,04,,147.7,M,,M,,*78
$GPRMC,232512,A,3523.4868,N,13926.3446,E,24.5,67.7,121204,6.6,W*6F
$GPGGA,232512,3523.4868,N,13926.3446,E,1,04,,148.2,M,,M,,*73
$GPRMC,232513,A,3523.4894,N,13926.3510,E,21.0,63.8,121204,6.6,W*64
$GPGGA,232513,3523.4894,N,13926.3510,E,1,04,,148.2,M,,M,,*73
$GPRMC,232514,A,3523.4920,N,13926.3562,E,17.7,58.4,121204,6.6,W*6E
$GPGGA,232514,3523.4920,N,13926.3562,E,1,04,,148.7,M,,M,,*7A
$GPRMC,232515,A,3523.4945,N,13926.3639,E,24.5,67.7,121204,6.6,W*6C
$GPGGA,232515,3523.4945,N,13926.3639,E,1,04,,148.7,M,,M,,*75
$GPRMC,232516,A,3523.4971,N,13926.3703,E,21.0,63.8,121204,6.6,W*6B
$GPGGA,232516,3523.4971,N,13926.3703,E,1,04,,149.6,M,,M,,*79
$GPRMC,232517,A,3523.4997,N,13926.3781,E,24.5,67.7,121204,6.6,W*63
$GPGGA,232517,3523.4997,N,13926.3781,E,1,04,,149.6,M,,M,,*7A
$GPRMC,232518,A,3523.5023,N,13926.3858,E,24.5,67.7,121204,6.6,W*60
$GPGGA,232518,3523.5023,N,13926.3858,E,1,04,,149.1,M,,M,,*7E
$GPRMC,232519,A,3523.5035,N,13926.3935,E,23.1,78.4,121204,6.6,W*62
$GPGGA,232519,3523.5035,N,13926.3935,E,1,04,,150.1,M,,M,,*7A
$GPRMC,232520,A,3523.5048,N,13926.4000,E,19.4,76.2,121204,6.6,W*6E
$GPGGA,232520,3523.5048,N,13926.4000,E,1,04,,150.1,M,,M,,*72
$GPRMC,232521,A,3523.5061,N,13926.4051,E,15.8,72.9,121204,6.6,W*6F
$GPGGA,232521,3523.5061,N,13926.4051,E,1,04,,150.1,M,,M,,*7C
$GPRMC,232522,A,3523.5074,N,13926.4103,E,15.8,72.9,121204,6.6,W*6E
$GPGGA,232522,3523.5074,N,13926.4103,E,1,04,,151.1,M,,M,,*7C
$GPRMC,232523,A,3523.5074,N,13926.4141,E,11.3,89.9,121204,6.6,W*62
$GPGGA,232523,3523.5074,N,13926.4141,E,1,04,,150.6,M,,M,,*7D
$GPRMC,232524,A,3523.5087,N,13926.4167,E,8.8,58.4,121204,6.6,W*5F
$GPGGA,232524,3523.5087,N,13926.4167,E,1,04,,151.1,M,,M,,*74
$GPRMC,232525,A,3523.5087,N,13926.4193,E,7.5,89.9,121204,6.6,W*56
$GPGGA,232525,3523.5087,N,13926.4193,E,1,04,,151.5,M,,M,,*7A
$GPRMC,232526,A,3523.5087,N,13926.4218,E,7.5,89.9,121204,6.6,W*55
$GPGGA,232526,3523.5087,N,13926.4218,E,1,04,,152.0,M,,M,,*7F
$GPRMC,232527,A,3523.5100,N,13926.4244,E,8.8,58.4,121204,6.6,W*50
$GPGGA,232527,3523.5100,N,13926.4244,E,1,04,,151.5,M,,M,,*7F
$GPRMC,232528,A,3523.5100,N,13926.4270,E,7.5,89.9,121204,6.6,W*5B
$GPGGA,232528,3523.5100,N,13926.4270,E,1,04,,152.5,M,,M,,*74
$GPRMC,232529,A,3523.5100,N,13926.4296,E,7.5,89.9,121204,6.6,W*52
$GPGGA,232529,3523.5100,N,13926.4296,E,1,04,,152.0,M,,M,,*78
$GPRMC,232530,A,3523.5113,N,13926.4321,E,8.8,58.4,121204,6.6,W*56
$GPGGA,232530,3523.5113,N,13926.4321,E,1,04,,152.0,M,,M,,*7F
$GPRMC,232531,A,3523.5113,N,13926.4347,E,7.5,89.9,121204,6.6,W*54
